X;Y;id;lat;long;type;site;code;name
-0.5805;44.840439;7326;-0.580500000000000;44.840439000000003;Oberaden 74;Bordeaux;PHILODAMVS;Aquitania
2.1741;41.398371;33256;2.174100000000000;41.398370999999997;Dressel 2-4 Catalan;Barcelona;O;Tarraconensis
4.032143;46.92678;20958;4.032143000000000;46.926780000000001;Dressel 1;Mont-Beuvray;SIN;Lugdunensis
-3.983333;55.95;16637;-3.983333000000000;55.950000000000003;Dressel 20;Cumbernauld;PQ;Caledonia
11.883333;45.416667;33025;11.883333000000000;45.416666999999997;Dressel 6B;Padova;LAEK;Italia
-1.983333;51.733333;16590;-1.983333000000000;51.733333000000002;Dressel 20;Cirencester;CPCAMO;Britannia
17.933333;40.633333;40133;17.933333000000001;40.633333000000000;Brindisian amphora;Brindisi;DAMA;Italia
1.903887;47.902891;28008;1.903887000000000;47.902890999999997;Pascual 1;Orléans;M;Lugdunensis
4.860743;45.531592;39655;4.860743000000000;45.531592000000003;Dressel 20;Saint-Romain-en-Gal;CSEMPRONIPOLYCLITI;Narbonensis
4.032143;46.92678;20842;4.032143000000000;46.926780000000001;Dressel 1;Mont-Beuvray;GA;Lugdunensis
14.966667;46.65;31676;14.966666999999999;46.649999999999999;Dressel 6B;Magdalensberg;PTOLEM;Noricum
6.807625;47.449211;8764;6.807625000000000;47.449210999999998;Dressel 20;Mandeure;EVRI;Germania Superior
4.942851;43.383543;10071;4.942851000000000;43.383543000000003;Gauloise 4;Golfe de Fos;MATVRI;Narbonensis
-0.751789;37.802242;23707;-0.751789000000000;37.802242000000000;Lamboglia 2;San Pedro;VICTORIA;Tarraconensis
8.645835;50.159548;27985;8.645835000000000;50.159548000000001;Dressel 20;Nida-Heddernheim;LIVNIMELISSI;Germania Superior
8.846132;49.897382;27413;8.846132000000001;49.897382000000000;Dressel 20;Dieburg;ACIRGI;Germania Superior
-0.986232;37.605121;23775;-0.986232000000000;37.605120999999997;Lamboglia 2;Cartagena;ALLAE;Tarraconensis
3.117809;42.139543;17486;3.117809000000000;42.139543000000003;Brindisian amphora;Ampurias;VEHIL;Tarraconensis
-5.02037;37.810702;28359;-5.020370000000000;37.810701999999999;Dressel 20;Almodóvar del Río;LIBERALINI;Baetica
4.873453;45.524785;39634;4.873453000000000;45.524785000000001;Dressel 20;Vienne;CSP;Narbonensis
3.1106;43.803533;6137;3.110600000000000;43.803533000000002;Dressel 1;Ceilhes-et-Rocozels;ANT;Narbonensis
6.685037;51.198071;14260;6.685037000000000;51.198070999999999;Dressel 20;Neuss;ENNIORVMIVLIORVM;Germania Inferior
17.933333;40.633333;38126;17.933333000000001;40.633333000000000;Brindisian amphora;Brindisi;VEHILI;Italia
2.444503;41.542113;6275;2.444503000000000;41.542113000000001;Pascual 1;Mataró;VERD;Tarraconensis
17.933333;40.633333;41090;17.933333000000001;40.633333000000000;Brindisian amphora;Brindisi;VEHILIANA;Italia
2.007994;41.396145;36500;2.007994000000000;41.396144999999997;Dressel 2-4 Catalan;Sant Vicenç dels Horts;P;Tarraconensis
17.85;40.683333;37504;17.850000000000001;40.683332999999998;Brindisian amphora;Canale Giancola;VISELLI;Italia
8.413845;49.657495;27819;8.413845000000000;49.657494999999997;Augst 17;Hofheim;PONTICI;Germania Superior
17.933333;40.633333;39282;17.933333000000001;40.633333000000000;Brindisian amphora;Brindisi;APOLLONI;Italia
1.333333;51.283333;15497;1.333333000000000;51.283332999999999;Dressel 20;Edinburgh;ACIRGI;Britannia
2.4;47.083333;28040;2.400000000000000;47.083333000000003;Dressel 20;Bourges;SFE;Aquitania
17.933333;40.633333;40680;17.933333000000001;40.633333000000000;Brindisian amphora;Brindisi;PILEMO;Italia
6.735237;43.432858;19539;6.735237000000000;43.432858000000003;Dressel 20;Fréjus;GERMIS;Narbonensis
2.1741;41.398371;17316;2.174100000000000;41.398370999999997;Pascual 1;Barcelona;AMANDI;Tarraconensis
8.05;43.883333;19481;8.050000000000001;43.883333000000000;Dressel 2-4 Catalan;Imperia;CPF;Italia
-0.093145;51.514248;30734;-0.093145000000000;51.514248000000002;Mortarium;London;VRBANVSTIBERF;Britannia
8.115128;49.746574;27390;8.115128000000000;49.746574000000003;Dressel 20;Alzey;CAEF;Germania Superior
10.636991;35.825388;27103;10.636991000000000;35.825387999999997;Operculum;Sousse (Hadrumetum);ALEXANDER;Africa Proconsularis
13.5;43.633333;36165;13.500000000000000;43.633333000000000;Lamboglia 2;Ancona;CASTRA;Italia
17.85;40.683333;35937;17.850000000000001;40.683332999999998;Brindisian amphora;Canale Giancola;LMARCISATVR;Italia
5.817642;48.663156;8019;5.817642000000000;48.663156000000001;Dressel 20;Choloy;LIVNIMELISSI;Belgica
11.25;42.5;33849;11.250000000000000;42.500000000000000;Dressel 1C;Albinia;ARS;Italia
9.254185;41.341096;18605;9.254185000000000;41.341096000000000;Dressel 2-4 Catalan;Îles Lavezzi;VIC;Corsica et Sardinia
4.032143;46.92678;20855;4.032143000000000;46.926780000000001;Dressel 1;Mont-Beuvray;HF;Lugdunensis
17.85;40.683333;35541;17.850000000000001;40.683332999999998;Brindisian amphora;Canale Giancola;SCOPAS;Italia
2.244789;41.447145;17790;2.244789000000000;41.447144999999999;Dressel 2-4 Catalan;Badalona;NIIN;Tarraconensis
17.933333;40.633333;41016;17.933333000000001;40.633333000000000;Brindisian amphora;Brindisi;ANINIANA;Italia
0.9;51.883333;15567;0.900000000000000;51.883333000000000;Dressel 20;Colchester;CANTONIQVIETI;Britannia
2.444503;41.542113;19227;2.444503000000000;41.542113000000001;Dressel 2-4 Catalan;Mataró;AS;Tarraconensis
17.85;40.683333;34621;17.850000000000001;40.683332999999998;Brindisian amphora;Canale Giancola;APOLLONID;Italia
1.139829;41.076036;32230;1.139829000000000;41.076036000000002;Tegula;Salou;MPEIAV;Tarraconensis
4.032143;46.92678;20784;4.032143000000000;46.926780000000001;Dressel 1;Mont-Beuvray;AI;Lugdunensis
17.85;40.683333;34627;17.850000000000001;40.683332999999998;Brindisian amphora;Canale Giancola;APOLLONID;Italia
4.032143;46.92678;24432;4.032143000000000;46.926780000000001;Dressel 1;Mont-Beuvray;M;Lugdunensis
5.941712;43.117705;20166;5.941712000000000;43.117705000000001;Gauloise 4;Toulon;APM;Narbonensis
4.846711;45.748457;24601;4.846711000000000;45.748457000000002;Dressel 20;Lyon?;PATVIC;Lugdunensis
17.85;40.683333;35220;17.850000000000001;40.683332999999998;Brindisian amphora;Canale Giancola;HERMAISCI;Italia
17.933333;40.633333;40300;17.933333000000001;40.633333000000000;Brindisian amphora;Brindisi;GLAVCI;Italia
2.007994;41.396145;36361;2.007994000000000;41.396144999999997;Pascual 1;Sant Vicenç dels Horts;F;Tarraconensis
6.692361;51.035167;32245;6.692361000000000;51.035167000000001;Dressel 20;Rommerskirchen;QVIN;Germania Inferior
17.933333;40.633333;4756;17.933333000000001;40.633333000000000;Brindisian amphora;Brindisi;COTHPIX;Italia
4.846711;45.748457;24640;4.846711000000000;45.748457000000002;Dressel 20;Lyon?;TATILIASIATICI;Lugdunensis
5.179773;52.064313;41485;5.179773000000000;52.064312999999999;Dressel 20;Fort Vechten;CCRASSISEMNI;Germania Inferior
17.85;40.683333;34665;17.850000000000001;40.683332999999998;Brindisian amphora;Canale Giancola;APOLLONID;Italia
17.85;40.683333;35367;17.850000000000001;40.683332999999998;Brindisian amphora;Canale Giancola;LVKAON;Italia
-0.751789;37.802242;23595;-0.751789000000000;37.802242000000000;Lamboglia 2;San Pedro;ABAR;Tarraconensis
17.933333;40.633333;38008;17.933333000000001;40.633333000000000;Brindisian amphora;Brindisi;PVEBAL;Italia
-5.52751;37.658961;7121;-5.527510000000000;37.658960999999998;Dressel 20;Lora del Río;LSERLVPI;Baetica
4.636331;43.681659;39767;4.636331000000000;43.681659000000003;Dressel 20;Arles;PNN;Narbonensis
2.007994;41.396145;36549;2.007994000000000;41.396144999999997;Pascual 1;Sant Vicenç dels Horts;PR;Tarraconensis
12.283333;41.75;28370;12.283333000000001;41.750000000000000;Dressel 20;Ostia Antica;QIA;Italia
17.85;40.683333;37280;17.850000000000001;40.683332999999998;Brindisian amphora;Canale Giancola;DEMETRI;Italia
3.51869;47.461183;21071;3.518690000000000;47.461182999999998;Dressel 1;Entrains-sur-Nohain;BARC;Lugdunensis
10.166667;42.783333;37239;10.166667000000000;42.783332999999999;Amphora incerta;Marciana;CPC;Italia
17.933333;40.633333;40521;17.933333000000001;40.633333000000000;Brindisian amphora;Brindisi;MENOPILVS;Italia
4.032143;46.92678;20750;4.032143000000000;46.926780000000001;Dressel 1;Mont-Beuvray;AC;Lugdunensis
4.942851;43.383543;10243;4.942851000000000;43.383543000000003;Dressel 20;Golfe de Fos;PSAVITI;Narbonensis
16.728333;43.140833;4801;16.728332999999999;43.140833000000001;Lamboglia 2;Hvar;CIA;Dalmatia
11.983333;42.65;34319;11.983333000000000;42.649999999999999;Amphora incerta;Bolsena;VTHPVLROG;Italia
3.443291;43.280977;39369;3.443291000000000;43.280977000000000;Dressel 20;Hérault;TATILIASIATICI;Narbonensis
-8.501922;39.288806;25513;-8.501922000000000;39.288806000000001;Brindisian amphora;Santarém;MENA;Lusitania
11.883333;45.416667;32754;11.883333000000000;45.416666999999997;Dressel 6B;Padova;LAEHLAEKB;Italia
2.1741;41.398371;33209;2.174100000000000;41.398370999999997;Pascual 1;Barcelona;EPAPR;Tarraconensis
4.873453;45.524785;24799;4.873453000000000;45.524785000000001;Dressel 20;Vienne;LFO;Narbonensis
8.645835;50.159548;27594;8.645835000000000;50.159548000000001;Dressel 20;Nida-Heddernheim;LQS;Germania Superior
8.279096;49.984188;19027;8.279095999999999;49.984188000000003;Dressel 20;Mainz;CMM;Germania Superior
-5.082599;37.542203;38805;-5.082599000000000;37.542203000000001;Dressel 20;Écija;ROMANI;Baetica
11.25;42.5;33793;11.250000000000000;42.500000000000000;Amphora incerta;Albinia;APEL;Italia
3.008816;43.184417;10718;3.008816000000000;43.184417000000003;Pascual 1;Narbonne;F;Narbonensis
5.265397;44.690917;8350;5.265397000000000;44.690916999999999;Amphora incerta;Roanne;AI;Narbonensis
12.393333;45.544444;10553;12.393333000000000;45.544443999999999;Lamboglia 2;Altino;EPICA;Italia
3.104371;42.517594;5298;3.104371000000000;42.517594000000003;Dressel 20;Port-Vendres;CSEMPRONIPOLYCLITI;Narbonensis
-2.016667;54.966667;16345;-2.016667000000000;54.966667000000001;Dressel 20;Corbridge;PMPM;Britannia
14.514444;46.055278;25814;14.514443999999999;46.055278000000001;Dressel 6B;Ljubljana (Emona);CALCRISPINILLAE;Italia
3.117809;42.139543;17543;3.117809000000000;42.139543000000003;Dressel 8;Ampurias;ANTH;Tarraconensis
4.846711;45.748457;17398;4.846711000000000;45.748457000000002;Dressel 20;Lyon?;PSAVITI;Lugdunensis
17.933333;40.633333;40264;17.933333000000001;40.633333000000000;Brindisian amphora;Brindisi;HPAIOC;Italia
29.955266;31.215645;6475;29.955266000000002;31.215644999999999;Dressel 20;Alexandria;ASVLEIANESE;Aegyptus
11.65;45.233333;4819;11.650000000000000;45.233333000000002;Dressel 6B;Este;HADAVG;Italia
29.955266;31.215645;38559;29.955266000000002;31.215644999999999;Brindisian amphora;Alexandria;MARB;Aegyptus
14.966667;46.65;31647;14.966666999999999;46.649999999999999;Dressel 6B;Magdalensberg;COMI;Noricum
4.032143;46.92678;24473;4.032143000000000;46.926780000000001;Dressel 1;Mont-Beuvray;RE;Lugdunensis
29.955266;31.215645;38683;29.955266000000002;31.215644999999999;Brindisian amphora;Alexandria;MTVCCILFTROGALEONIS;Aegyptus
7.544738;48.041178;7961;7.544738000000000;48.041178000000002;Dressel 20;Biesheim;CALPVRNC;Germania Superior
10.883333;35.666667;4722;10.883333000000000;35.666666999999997;Africana 2;Lamta;CIRCULUS;Africa Proconsularis
7.717205;47.536818;7543;7.717205000000000;47.536817999999997;Dressel 20;Augst;PMSC;Germania Superior
3.5;50.6;24672;3.500000000000000;50.600000000000001;Dressel 20;Liberchies;LIVNIMELISSI;Belgica
4.798681;47.326304;21115;4.798681000000000;47.326304000000000;Dressel 1;Mâlain;HERACLIDA;Lugdunensis
-6.191022;36.528604;27320;-6.191022000000000;36.528604000000001;Amphora incerta;Puerto Real;SOC;Baetica
17.85;40.683333;34689;17.850000000000001;40.683332999999998;Brindisian amphora;Canale Giancola;APOLONIDA;Italia
12.488056;45.78;32634;12.488056000000000;45.780000000000001;Dressel 6B;Oderzo;AMETHYSTI;Italia
11.883333;45.416667;32814;11.883333000000000;45.416666999999997;Dressel 6B;Padova;FEL;Italia
10.9;44.5;34240;10.900000000000000;44.500000000000000;Amphora incerta;Modena;LICI;Italia
11.25;42.5;33855;11.250000000000000;42.500000000000000;Dressel 1C;Albinia;ARS;Italia
-5.52751;37.658961;41677;-5.527510000000000;37.658960999999998;Dressel 20;Lora del Río;IIAVRELHERACLAPATETFILFGRV;Baetica
17.933333;40.633333;37939;17.933333000000001;40.633333000000000;Brindisian amphora;Brindisi;NMACCIVSLFQ;Italia
8.608962;49.473071;18886;8.608962000000000;49.473070999999997;Dressel 20;Ladenburg (Lopodunum);LMVE;Germania Superior
2.244789;41.447145;18042;2.244789000000000;41.447144999999999;Dressel 2-4 Catalan;Badalona;R;Tarraconensis
2.444503;41.542113;19277;2.444503000000000;41.542113000000001;Dressel 2-4 Catalan;Mataró;SEC;Tarraconensis
-0.093145;51.514248;15458;-0.093145000000000;51.514248000000002;Dressel 20;London;PORLAR;Britannia
-6.191022;36.528604;27266;-6.191022000000000;36.528604000000001;Dressel 8;Puerto Real;LMEFAVSTI;Baetica
4.032143;46.92678;24419;4.032143000000000;46.926780000000001;Dressel 1;Mont-Beuvray;GN;Lugdunensis
-0.093145;51.514248;15615;-0.093145000000000;51.514248000000002;Dressel 20;London;QANTRVG;Britannia
11.55;45.55;36828;11.550000000000001;45.549999999999997;Dressel 6B;Vicenza;FELIXSCR;Italia
4.905743;46.567577;21057;4.905743000000000;46.567577000000000;Dressel 1;Tournus;AM;Lugdunensis
3.008816;43.184417;25581;3.008816000000000;43.184417000000003;Pascual 1;Narbonne;IVLITHEOPHIL;Narbonensis
2.1741;41.398371;24665;2.174100000000000;41.398370999999997;Pascual 1;Barcelona;T;Tarraconensis
-1.083333;53.966667;16259;-1.083333000000000;53.966667000000001;Dressel 20;York;LIVNIMELISSI;Britannia
17.85;40.683333;37606;17.850000000000001;40.683332999999998;Brindisian amphora;Canale Giancola;LUKAON;Italia
12.283333;41.75;26487;12.283333000000001;41.750000000000000;Dressel 20;Ostia Antica;CAERARIA;Italia
-5.52751;37.658961;11285;-5.527510000000000;37.658960999999998;Dressel 20;Lora del Río;ATITTAE;Baetica
5.487011;48.384942;8002;5.487011000000000;48.384942000000002;Dressel 20;Grand;CIALB;Germania Superior
2.007994;41.396145;36285;2.007994000000000;41.396144999999997;Pascual 1;Sant Vicenç dels Horts;IV;Tarraconensis
8.279096;49.984188;19032;8.279095999999999;49.984188000000003;Dressel 20;Mainz;PMANISVP;Germania Superior
-2.016667;54.966667;17196;-2.016667000000000;54.966667000000001;Dressel 20;Corbridge;OICSVPVRO;Britannia
4.873453;45.524785;39565;4.873453000000000;45.524785000000001;Dressel 20;Vienne;SNR;Narbonensis
8.397222;40.835;26185;8.397221999999999;40.835000000000001;Africana;Porto Torres;TFPI;Corsica et Sardinia
4.846711;45.748457;28364;4.846711000000000;45.748457000000002;Dressel 20;Lyon?;CIALB;Lugdunensis
2.007994;41.396145;36620;2.007994000000000;41.396144999999997;Pascual 1;Sant Vicenç dels Horts;T;Tarraconensis
17.85;40.683333;35412;17.850000000000001;40.683332999999998;Brindisian amphora;Canale Giancola;POLEMON;Italia
3.008816;43.184417;10748;3.008816000000000;43.184417000000003;Pascual 1;Narbonne;SIMBOLUS;Narbonensis
4.846711;45.748457;17403;4.846711000000000;45.748457000000002;Dressel 20;Lyon?;SCOROBRES;Lugdunensis
4.942851;43.383543;9851;4.942851000000000;43.383543000000003;Dressel 20;Golfe de Fos;LIT;Narbonensis
8.166667;49.833333;27868;8.166667000000000;49.833333000000003;Dressel 20;Rheinhessen;MIM;Germania Superior
-5.082599;37.542203;10887;-5.082599000000000;37.542203000000001;Dressel 20;Écija;LAVRELIGERMANI;Baetica
17.85;40.683333;37283;17.850000000000001;40.683332999999998;Brindisian amphora;Canale Giancola;DEMETRI;Italia
12.283333;41.75;29422;12.283333000000001;41.750000000000000;Dressel 20;Ostia Antica;GRA;Italia
4.636331;43.681659;39747;4.636331000000000;43.681659000000003;Dressel 20;Arles;EQFA;Narbonensis
8.44;39.881944;25324;8.440000000000000;39.881943999999997;Tegula;Sardegna;CPROMINVS;Corsica et Sardinia
5.265397;44.690917;8376;5.265397000000000;44.690916999999999;Dressel 1B;Roanne;BDD;Narbonensis
4.032143;46.92678;20985;4.032143000000000;46.926780000000001;Dressel 1;Mont-Beuvray;E;Lugdunensis
8.645835;50.159548;27547;8.645835000000000;50.159548000000001;Dressel 20;Nida-Heddernheim;LFCRES;Germania Superior
4.949001;47.136829;17467;4.949001000000000;47.136828999999999;Mortarium;Nuits-Saint-Georges;NITIOCENVF;Lugdunensis
8.181798;47.384048;20687;8.181798000000001;47.384048000000000;Amphora incerta;Lenzburg;OCEANI;Germania Superior
-2.936694;35.292193;24536;-2.936694000000000;35.292192999999997;Amphora incerta;Melilla;M;Mauretania Tingitana
7.041042;46.880888;20535;7.041042000000000;46.880887999999999;Amphora incerta;Avenches;HERMESLVN;Germania Superior
17.933333;40.633333;38396;17.933333000000001;40.633333000000000;Brindisian amphora;Brindisi;ANTIOCOS;Italia
-3.333333;56.333333;15641;-3.333333000000000;56.333333000000003;Dressel 20;Abernethy;PARVA;Caledonia
11.883333;45.416667;9659;11.883333000000000;45.416666999999997;Amphora incerta;Padova;TEBDPARHA;Italia
3.833333;40.033333;12567;3.833333000000000;40.033332999999999;Dressel 2-4 Catalan;Ciudadela;AR;Tarraconensis
-2.916667;53.2;17189;-2.916667000000000;53.200000000000003;Dressel 20;Chester;CS;Britannia
17.933333;40.633333;40233;17.933333000000001;40.633333000000000;Brindisian amphora;Brindisi;EIKADIO;Italia
-0.25;51.833333;15619;-0.250000000000000;51.833333000000003;Dressel 20;St. Albans;LANTSVRI;Britannia
3.008816;43.184417;25560;3.008816000000000;43.184417000000003;Pascual 1;Narbonne;FVLPHIL;Narbonensis
8.645835;50.159548;27555;8.645835000000000;50.159548000000001;Dressel 20;Nida-Heddernheim;SLAEON;Germania Superior
-5.646083;37.471248;13626;-5.646083000000000;37.471248000000003;Dressel 20;Carmona;LER;Baetica
0.145549;49.616158;30600;0.145549000000000;49.616157999999999;Dressel 20;Heuqueville;VIRG;Lugdunensis
1.333333;51.283333;15614;1.333333000000000;51.283332999999999;Dressel 20;Edinburgh;QANTRVG;Britannia
2.007994;41.396145;36357;2.007994000000000;41.396144999999997;Pascual 1;Sant Vicenç dels Horts;F;Tarraconensis
-0.25;51.833333;15736;-0.250000000000000;51.833333000000003;Dressel 20;St. Albans;QCCI;Britannia
8.279096;49.984188;18998;8.279095999999999;49.984188000000003;Dressel 20;Mainz;MIM;Germania Superior
8.566917;50.271515;14051;8.566917000000000;50.271515000000001;Dressel 20;Niederbieber;PAPRV;Germania Superior
0.2;52.066667;15845;0.200000000000000;52.066667000000002;Dressel 20;Chesterford;CAMILIMELISSI;Britannia
4.942851;43.383543;10078;4.942851000000000;43.383543000000003;Dressel 20;Golfe de Fos;A;Narbonensis
3.008816;43.184417;6110;3.008816000000000;43.184417000000003;Dressel 20;Narbonne;QFF;Narbonensis
-2.916667;53.2;15383;-2.916667000000000;53.200000000000003;Dressel 20;Chester;AAFAAE;Britannia
2.007994;41.396145;36472;2.007994000000000;41.396144999999997;Pascual 1;Sant Vicenç dels Horts;MA;Tarraconensis
4.765745;44.349093;19839;4.765745000000000;44.349093000000003;Gauloise 1;Saint-Paul-Trois-Chateaux;VERI;Narbonensis
-0.266667;39.683333;13900;-0.266667000000000;39.683332999999998;Dressel 2-4 Catalan;Sagunto;GRAECO;Tarraconensis
6.866667;43.433333;9397;6.866667000000000;43.433332999999998;Dressel 2-4 Catalan;Rade d'Agay;SA;Narbonensis
29.955266;31.215645;38689;29.955266000000002;31.215644999999999;Brindisian amphora;Alexandria;VEHILI;Aegyptus
-0.45;38.35;24007;-0.450000000000000;38.350000000000001;Dressel 20;Alicante;SEXIRVF;Tarraconensis
1.083333;51.266667;27982;1.083333000000000;51.266666999999998;Dressel 6;Canterbury;HERMES;Britannia
3.0;39.316667;7348;3.000000000000000;39.316667000000002;Lamboglia 2;Colònia de Sant Jordi;VERSO;Tarraconensis
11.883333;45.416667;9654;11.883333000000000;45.416666999999997;Amphora incerta;Padova;PSEPVLLIPF;Italia
-5.233333;37.833333;11520;-5.233333000000000;37.833333000000003;Dressel 20;Hornachuelos;SAXE;Baetica
-8.29339;40.079493;21398;-8.293390000000000;40.079492999999999;Keay 16;Tróia;LEVGEN;Lusitania
8.866667;44.9;23324;8.866667000000000;44.899999999999999;Lamboglia 2;Tortona;MENOMIINO;Italia
17.933333;40.633333;38393;17.933333000000001;40.633333000000000;Brindisian amphora;Brindisi;ANTIOCOS;Italia
2.244789;41.447145;17962;2.244789000000000;41.447144999999999;Pascual 1;Badalona;MPORCI;Tarraconensis
8.48255;49.921394;27453;8.482550000000000;49.921393999999999;Dressel 20;Groß-Gerau;LMINICIFIRMONI;Germania Superior
-0.093145;51.514248;16647;-0.093145000000000;51.514248000000002;Dressel 20;London;QFLAVIFLAVIANI;Britannia
8.279096;49.984188;19022;8.279095999999999;49.984188000000003;Dressel 20;Mainz;ALFO;Germania Superior
3.117809;42.139543;17738;3.117809000000000;42.139543000000003;Dressel 8;Ampurias;VENVS;Tarraconensis
0.158146;49.521309;30567;0.158146000000000;49.521309000000002;Dressel 20;Rouen;APNA;Lugdunensis
17.933333;40.633333;38155;17.933333000000001;40.633333000000000;Brindisian amphora;Brindisi;VEHILI;Italia
4.942851;43.383543;10186;4.942851000000000;43.383543000000003;Dressel 20;Golfe de Fos;LSAR;Narbonensis
12.283333;41.75;3065;12.283333000000001;41.750000000000000;Dressel 20;Ostia Antica;IICCLLM;Italia
17.933333;40.633333;4742;17.933333000000001;40.633333000000000;Brindisian amphora;Brindisi;POSIDONI;Italia
2.040791;41.342647;36642;2.040791000000000;41.342646999999999;Pascual 1;Sant Boi de Llobregat;QVA;Tarraconensis
8.279096;49.984188;14846;8.279095999999999;49.984188000000003;Dressel 20;Mainz;PORPS;Germania Superior
17.85;40.683333;35858;17.850000000000001;40.683332999999998;Brindisian amphora;Canale Giancola;DAZIO;Italia
2.244789;41.447145;18006;2.244789000000000;41.447144999999999;Dressel 2-4 Catalan;Badalona;COM;Tarraconensis
12.283333;41.75;26202;12.283333000000001;41.750000000000000;Africana 2D Grande;Ostia Antica;BSCDLEPMI;Italia
12.583333;38.033333;36968;12.583333000000000;38.033332999999999;Amphora incerta;Erice;OTA;Sicilia
7.787355;48.600381;19848;7.787355000000000;48.600380999999999;Dressel 20;Strasbourg;ARVA;Germania Superior
3.008816;43.184417;12725;3.008816000000000;43.184417000000003;Pascual 1;Narbonne;EVO;Narbonensis
4.846711;45.748457;24635;4.846711000000000;45.748457000000002;Dressel 20;Lyon?;SCALENSIAPHI;Lugdunensis
8.618248;48.168228;14147;8.618247999999999;48.168227999999999;Dressel 20;Kastell Marienfels;LCFPC;Germania Superior
4.942851;43.383543;10246;4.942851000000000;43.383543000000003;Dressel 20;Golfe de Fos;PVAFAV;Narbonensis
9.4;45.3;33971;9.400000000000000;45.299999999999997;Dressel 6B;Lodi Vecchio;CRISPINILI;Italia
8.684167;50.11552;14526;8.684167000000000;50.115519999999997;Dressel 20;Frankfurt am Main;LIT;Germania Superior
8.416667;45.316667;25368;8.416667000000000;45.316667000000002;Dressel 20;Vercelli;CIB;Italia
2.1741;41.398371;17326;2.174100000000000;41.398370999999997;Dressel 2-4 Catalan;Barcelona;EPLPCP;Tarraconensis
3.432619;43.628947;4895;3.432619000000000;43.628946999999997;Dressel 20;Clermont-l'Hérault;PIVLICRISPI;Narbonensis
17.933333;40.633333;40540;17.933333000000001;40.633333000000000;Brindisian amphora;Brindisi;MENOPILVS;Italia
17.933333;40.633333;40672;17.933333000000001;40.633333000000000;Brindisian amphora;Brindisi;PILEMO;Italia
11.883333;45.416667;32770;11.883333000000000;45.416666999999997;Dressel 6B;Padova;L;Italia
5.866667;51.833333;5654;5.866667000000000;51.833333000000003;Dressel 20;Nijmegen;QMR;Germania Inferior
2.302157;49.619303;30478;2.302157000000000;49.619303000000002;Dressel 20;Vendeuil-Caply;CAP;Belgica
29.955266;31.215645;38536;29.955266000000002;31.215644999999999;Brindisian amphora;Alexandria;APPVLEI;Aegyptus
-5.615269;41.846918;7160;-5.615269000000000;41.846918000000002;Later;Villafáfila;LD;Tarraconensis
-0.266667;39.683333;13885;-0.266667000000000;39.683332999999998;Amphora incerta;Sagunto;KAP;Tarraconensis
2.007994;41.396145;36660;2.007994000000000;41.396144999999997;Dressel 2-4 Catalan;Sant Vicenç dels Horts;SIGNUM;Tarraconensis
5.866667;51.833333;5606;5.866667000000000;51.833333000000003;Dressel 20;Nijmegen;PANNIRVFI;Germania Inferior
-6.227507;36.59952;27344;-6.227507000000000;36.599519999999998;Beltrán 2B;El Puerto de Santa María;SIICVVA;Baetica
-1.083333;53.966667;16439;-1.083333000000000;53.966667000000001;Dressel 20;York;PMOCVFIGEDO;Britannia
4.873453;45.524785;24901;4.873453000000000;45.524785000000001;Dressel 20;Vienne;LVIBICHROMIS;Narbonensis
-5.233333;37.833333;12175;-5.233333000000000;37.833333000000003;Dressel 20;Hornachuelos;NARF;Baetica
7.717205;47.536818;7651;7.717205000000000;47.536817999999997;Dressel 20;Augst;AVIH;Germania Superior
7.616482;48.371252;7877;7.616482000000000;48.371251999999998;Dressel 8;Ehl;COSL;Germania Superior
9.2;45.466667;9818;9.199999999999999;45.466667000000001;Lamboglia 2;Milano;SIANDAE;Italia
2.444503;41.542113;5763;2.444503000000000;41.542113000000001;Dressel 2-4 Catalan;Mataró;LCORPR;Tarraconensis
-5.557032;34.073697;8885;-5.557032000000000;34.073697000000003;Dressel 20;Volubilis;CENNIHISPANI;Mauretania Tingitana
8.279096;49.984188;14552;8.279095999999999;49.984188000000003;Dressel 20;Mainz;CIVNREBVRI;Germania Superior
-7.648609;37.127338;24965;-7.648609000000000;37.127338000000002;Dressel 20;Tavira;LFO;Lusitania
5.65;43.166668;34052;5.650000000000000;43.166668000000001;Dressel 1;Baie de la Ciotat;PILOT;Narbonensis
-6.115818;34.60144;8884;-6.115818000000000;34.601439999999997;Dressel 20;Banasa;ROMVLI;Mauretania Tingitana
17.85;40.683333;34894;17.850000000000001;40.683332999999998;Brindisian amphora;Canale Giancola;ARCHELA;Italia
17.85;40.683333;35373;17.850000000000001;40.683332999999998;Brindisian amphora;Canale Giancola;LVKAON;Italia
11.333333;44.366667;34281;11.333333000000000;44.366667000000000;Amphora incerta;Pianoro;MSERRANI;Italia
11.883333;45.416667;9620;11.883333000000000;45.416666999999997;Dressel 6A;Padova;SEXIVLSEVER;Italia
6.866667;43.433333;9392;6.866667000000000;43.433332999999998;Dressel 2-4 Catalan;Rade d'Agay;F;Narbonensis
6.866667;43.433333;18663;6.866667000000000;43.433332999999998;Dressel 2-4 Catalan;Rade d'Agay;QAE;Narbonensis
5.866667;51.833333;5639;5.866667000000000;51.833333000000003;Dressel 20;Nijmegen;MFR;Germania Inferior
2.971462;42.600308;7255;2.971462000000000;42.600307999999998;Dressel 20;Elne;SFE;Narbonensis
8.684167;50.11552;14698;8.684167000000000;50.115519999999997;Dressel 20;Frankfurt am Main;SNR;Germania Superior
8.279096;49.984188;19394;8.279095999999999;49.984188000000003;Dressel 20;Mainz;LVALERITROPHIMI;Germania Superior
-1.066667;51.35;15949;-1.066667000000000;51.350000000000001;Dressel 20;Silchester;TFA;Britannia
17.85;40.683333;35643;17.850000000000001;40.683332999999998;Brindisian amphora;Canale Giancola;VISELLI;Italia
7.717205;47.536818;7648;7.717205000000000;47.536817999999997;Dressel 20;Augst;LV;Germania Superior
10.333333;36.866667;27111;10.333333000000000;36.866667000000000;Amphora incerta;Cartago;LRSILV;Africa Proconsularis
4.942851;43.383543;10298;4.942851000000000;43.383543000000003;Dressel 20;Golfe de Fos;SISEN;Narbonensis
10.333333;36.866667;21345;10.333333000000000;36.866667000000000;Dressel 2-4 Italian;Cartago;LEVMACHI;Africa Proconsularis
-6.041843;37.433953;12529;-6.041843000000000;37.433953000000002;Dressel 20;Santiponce;CAS;Baetica
11.25;42.5;33845;11.250000000000000;42.500000000000000;Dressel 1C;Albinia;ARS;Italia
4.873453;45.524785;24809;4.873453000000000;45.524785000000001;Dressel 20;Vienne;IVLEGN;Narbonensis
19.782222;42.171111;30431;19.782222000000001;42.171111000000003;Corintia;Fier;IN;Dalmatia
2.040791;41.342647;36638;2.040791000000000;41.342646999999999;Pascual 1;Sant Boi de Llobregat;QVA;Tarraconensis
0.9;51.883333;16833;0.900000000000000;51.883333000000000;Dressel 20;Colchester;SATVRNINI;Britannia
12.488056;45.78;32702;12.488056000000000;45.780000000000001;Amphora incerta;Oderzo;ATEIO;Italia
-2.958889;51.613333;15698;-2.958889000000000;51.613332999999997;Dressel 20;Caerleon;BELLVC;Britannia
17.933333;40.633333;41070;17.933333000000001;40.633333000000000;Brindisian amphora;Brindisi;ANINIANA;Italia
17.85;40.683333;35261;17.850000000000001;40.683332999999998;Brindisian amphora;Canale Giancola;LVCAO;Italia
3.104371;42.517594;5319;3.104371000000000;42.517594000000003;Dressel 20;Port-Vendres;CSEMPRONIPOLYCLITI;Narbonensis
5.265397;44.690917;8336;5.265397000000000;44.690916999999999;Dressel 2-4;Roanne;O;Narbonensis
0.333333;46.583333;9080;0.333333000000000;46.583333000000003;Dressel 20;Poitiers;SAXOFERR;Aquitania
12.488056;45.78;32693;12.488056000000000;45.780000000000001;Dressel 6B;Oderzo;ATVS;Italia
-0.706103;38.264987;10360;-0.706103000000000;38.264986999999998;Ignotus;Elche;MEN;Tarraconensis
17.933333;40.633333;39302;17.933333000000001;40.633333000000000;Brindisian amphora;Brindisi;APOLLONIMA;Italia
19.513056;42.0675;30409;19.513055999999999;42.067500000000003;Lamboglia 2;Shkodër;ZARA;Dalmatia
1.25;44.25;10399;1.250000000000000;44.250000000000000;Dressel 20;Quercy;QFG;Aquitania
8.48255;49.921394;27449;8.482550000000000;49.921393999999999;Dressel 20;Groß-Gerau;ENNIORVMIVLIORVM;Germania Superior
6.239319;46.388848;20617;6.239319000000000;46.388848000000003;Dressel 20;Nyon;NYMPHI;Germania Superior
4.942851;43.383543;10130;4.942851000000000;43.383543000000003;Dressel 20;Golfe de Fos;ENNIORVMIVLIORVM;Narbonensis
-5.082599;37.542203;11267;-5.082599000000000;37.542203000000001;Dressel 20;Écija;SVLAL;Baetica
11.65;45.233333;4655;11.650000000000000;45.233333000000002;Dressel 6A;Este;THB;Italia
3.303665;50.472689;26544;3.303665000000000;50.472689000000003;Amphora incerta;Landas;A;Belgica
-0.093145;51.514248;15423;-0.093145000000000;51.514248000000002;Dressel 20;London;PAH;Britannia
8.413845;49.657495;27807;8.413845000000000;49.657494999999997;Dressel 20;Hofheim;P;Germania Superior
-2.016667;54.966667;16005;-2.016667000000000;54.966667000000001;Dressel 20;Corbridge;MFF;Britannia
17.85;40.683333;35679;17.850000000000001;40.683332999999998;Brindisian amphora;Canale Giancola;VISELLI;Italia
17.933333;40.633333;38362;17.933333000000001;40.633333000000000;Brindisian amphora;Brindisi;VEHILI;Italia
-6.79846;34.0531;8645;-6.798460000000000;34.053100000000001;Dressel 20;Salé (Sala);ASVL;Mauretania Tingitana
14.514444;46.055278;25810;14.514443999999999;46.055278000000001;Dressel 6B;Ljubljana (Emona);HER;Italia
4.798681;47.326304;21133;4.798681000000000;47.326304000000000;Dressel 1;Mâlain;M;Lugdunensis
17.933333;40.633333;37768;17.933333000000001;40.633333000000000;Brindisian amphora;Brindisi;LANINI;Italia
1.09928;48.677158;33157;1.099280000000000;48.677157999999999;Pascual 1;Bourdeaux;V;Lugdunensis
4.942851;43.383543;10055;4.942851000000000;43.383543000000003;Dressel 2-4 Catalan;Golfe de Fos;P;Narbonensis
17.933333;40.633333;40378;17.933333000000001;40.633333000000000;Brindisian amphora;Brindisi;LEONTISCVS;Italia
5.783295;43.075304;18524;5.783295000000000;43.075304000000003;Dressel 2-4 Catalan;Île des Embiez;BAL;Narbonensis
-2.75;54.316667;15801;-2.750000000000000;54.316667000000002;Dressel 20;Watercrook;MMCS;Britannia
7.454263;47.658519;7860;7.454263000000000;47.658518999999998;Dressel 1;Sierentz;NA;Germania Superior
4.846711;45.748457;24623;4.846711000000000;45.748457000000002;Dressel 20;Lyon?;RVFINIATITTAE;Lugdunensis
11.283333;43.8;34330;11.283333000000001;43.799999999999997;Amphora incerta;Fiesole;EPITAISTONBPOTIDTATAGPITANIOY;Italia
0.333333;46.583333;9056;0.333333000000000;46.583333000000003;Dressel 20;Poitiers;PANNIRVFI;Aquitania
17.933333;40.633333;37947;17.933333000000001;40.633333000000000;Brindisian amphora;Brindisi;QOBVLTRON;Italia
17.85;40.683333;35466;17.850000000000001;40.683332999999998;Brindisian amphora;Canale Giancola;SCOPAS;Italia
4.860743;45.531592;29633;4.860743000000000;45.531592000000003;Dressel 20;Saint-Romain-en-Gal;LVARIONIS;Narbonensis
-0.093145;51.514248;15632;-0.093145000000000;51.514248000000002;Dressel 20;London;CAPF;Britannia
4.942851;43.383543;10048;4.942851000000000;43.383543000000003;Dressel 2-4;Golfe de Fos;QRTF;Narbonensis
17.933333;40.633333;38162;17.933333000000001;40.633333000000000;Brindisian amphora;Brindisi;VEHILI;Italia
17.933333;40.633333;41069;17.933333000000001;40.633333000000000;Brindisian amphora;Brindisi;ANINIANA;Italia
12.283333;41.75;28342;12.283333000000001;41.750000000000000;Dressel 20;Ostia Antica;IICCLLM;Italia
2.62341;41.602356;8526;2.623410000000000;41.602356000000000;Pascual 1;Sant Pol de Mar;MEVI;Tarraconensis
-2.766667;51.61;15504;-2.766667000000000;51.609999999999999;Dressel 20;Caerwent;ACIR;Britannia
3.008816;43.184417;25637;3.008816000000000;43.184417000000003;Pascual 1;Narbonne;L;Narbonensis
-5.281208;37.700239;913;-5.281208000000000;37.700239000000003;Dressel 20;Palma del Río;MCCDFM;Baetica
-0.706103;38.264987;21615;-0.706103000000000;38.264986999999998;Brindisian amphora;Elche;SOTERICSOTERIX;Tarraconensis
-1.066667;51.35;16205;-1.066667000000000;51.350000000000001;Dressel 20;Silchester;LIT;Britannia
0.732916;41.041827;25102;0.732916000000000;41.041826999999998;Oberaden 74;Tivissa;SEXDOMITI;Tarraconensis
17.933333;40.633333;40966;17.933333000000001;40.633333000000000;Brindisian amphora;Brindisi;ANINIANA;Italia
17.933333;40.633333;40397;17.933333000000001;40.633333000000000;Brindisian amphora;Brindisi;LEONTISCVS;Italia
8.645835;50.159548;27546;8.645835000000000;50.159548000000001;Dressel 20;Nida-Heddernheim;LFSEC;Germania Superior
17.933333;40.633333;38340;17.933333000000001;40.633333000000000;Brindisian amphora;Brindisi;VEHILI;Italia
17.933333;40.633333;26149;17.933333000000001;40.633333000000000;Brindisian amphora;Brindisi;MFA;Italia
3.008816;43.184417;25633;3.008816000000000;43.184417000000003;Pascual 1;Narbonne;H;Narbonensis
4.846711;45.748457;24568;4.846711000000000;45.748457000000002;Dressel 20;Lyon?;EROTIS;Lugdunensis
0.333333;46.583333;9083;0.333333000000000;46.583333000000003;Dressel 2-4 Catalan;Poitiers;HILARI;Aquitania
17.933333;40.633333;40728;17.933333000000001;40.633333000000000;Brindisian amphora;Brindisi;PTOLEMAE;Italia
17.229722;40.476111;40159;17.229721999999999;40.476111000000003;Lamboglia 2;Taranto;APOLONI;Italia
27.372747;37.948564;25062;27.372747000000000;37.948563999999998;Dressel 2-4 Italian;Selçuk (Ephesus);SVR;Asia
4.654932;52.135141;21422;4.654932000000000;52.135140999999997;Dressel 20;Alphen aan den Rijn;SCALHER;Germania Inferior
2.169444;41.629167;19153;2.169444000000000;41.629167000000002;Dressel 2-4 Catalan;Caldes de Montbui;SLL;Tarraconensis
16.455833;43.513889;6438;16.455832999999998;43.513888999999999;Dressel 20;Split;LPM;Dalmatia
17.85;40.683333;35693;17.850000000000001;40.683332999999998;Brindisian amphora;Canale Giancola;VISELLI;Italia
10.972771;49.030564;13947;10.972771000000000;49.030563999999998;Dressel 20;Weissenburg in Bayern;CAF;Raetia
4.942851;43.383543;10147;4.942851000000000;43.383543000000003;Dressel 20;Golfe de Fos;LFO;Narbonensis
17.85;40.683333;35993;17.850000000000001;40.683332999999998;Brindisian amphora;Canale Giancola;CNPETROSOSTR;Italia
17.933333;40.633333;40452;17.933333000000001;40.633333000000000;Brindisian amphora;Brindisi;MENECRATES;Italia
17.933333;40.633333;40972;17.933333000000001;40.633333000000000;Brindisian amphora;Brindisi;ANINIANA;Italia
-5.082599;37.542203;38945;-5.082599000000000;37.542203000000001;Dressel 20;Écija;CAMILIMELISSI;Baetica
-5.78;35.78;18082;-5.780000000000000;35.780000000000001;Beltrán 2;Tanger (Tingi);IRCIN;Mauretania Tingitana
14.933333;38.483333;16578;14.933332999999999;38.483333000000002;Richborough 527;Lipari;VB;Sicilia
11.883333;45.416667;36735;11.883333000000000;45.416666999999997;Dressel 6B;Padova;IALIS;Italia
-0.533333;53.233333;15972;-0.533333000000000;53.233333000000002;Dressel 20;Lincoln;LFC;Britannia
17.933333;40.633333;40338;17.933333000000001;40.633333000000000;Brindisian amphora;Brindisi;HERMOGE;Italia
17.85;40.683333;35642;17.850000000000001;40.683332999999998;Brindisian amphora;Canale Giancola;VISELLI;Italia
5.265397;44.690917;8375;5.265397000000000;44.690916999999999;Dressel 1;Roanne;XL;Narbonensis
-5.082599;37.542203;10845;-5.082599000000000;37.542203000000001;Dressel 20;Écija;LIVNIMELISSI;Baetica
8.416667;45.316667;25361;8.416667000000000;45.316667000000002;Dressel 6B;Vercelli;COLONI;Italia
17.933333;40.633333;40964;17.933333000000001;40.633333000000000;Brindisian amphora;Brindisi;ANINIANA;Italia
5.65;43.166668;34023;5.650000000000000;43.166668000000001;Dressel 1;Baie de la Ciotat;DIESC;Narbonensis
17.933333;40.633333;37936;17.933333000000001;40.633333000000000;Brindisian amphora;Brindisi;NMACCIVSLFQ;Italia
0.9;51.883333;15636;0.900000000000000;51.883333000000000;Dressel 20;Colchester;PARVA;Britannia
17.85;40.683333;35998;17.850000000000001;40.683332999999998;Brindisian amphora;Canale Giancola;CNPETROSOSTR;Italia
8.48255;49.921394;11963;8.482550000000000;49.921393999999999;Dressel 20;Groß-Gerau;CANTONIQVIETI;Germania Superior
-0.093145;51.514248;16432;-0.093145000000000;51.514248000000002;Dressel 20;London;IIIMINICIOR;Britannia
5.265397;44.690917;8404;5.265397000000000;44.690916999999999;Amphora incerta;Roanne;REGENVSF;Narbonensis
4.032143;46.92678;24509;4.032143000000000;46.926780000000001;Dressel 1;Mont-Beuvray;CRUX;Lugdunensis
4.636331;43.681659;39625;4.636331000000000;43.681659000000003;Dressel 20;Arles;PSAVITI;Narbonensis
8.566917;50.271515;14754;8.566917000000000;50.271515000000001;Dressel 20;Niederbieber;LPCHFILI;Germania Superior
1.333333;51.283333;16086;1.333333000000000;51.283332999999999;Dressel 20;Edinburgh;QIA;Britannia
17.85;40.683333;35842;17.850000000000001;40.683332999999998;Brindisian amphora;Canale Giancola;DAZIO;Italia
4.622744;46.710232;21151;4.622744000000000;46.710231999999998;Dressel 1;Cersot;PIC;Lugdunensis
6.148113;46.195602;9467;6.148113000000000;46.195602000000001;Dressel 20;Genève;LVARIONIS;Narbonensis
9.305129;41.369872;18656;9.305129000000001;41.369872000000001;Dressel 2-4 Catalan;Îles Perduto;CISSI;Corsica et Sardinia
17.933333;40.633333;38310;17.933333000000001;40.633333000000000;Brindisian amphora;Brindisi;VEHILI;Italia
8.166667;49.833333;27863;8.166667000000000;49.833333000000003;Dressel 20;Rheinhessen;SISEN;Germania Superior
5.65;43.166668;34060;5.650000000000000;43.166668000000001;Dressel 1;Baie de la Ciotat;FLAFLAS;Narbonensis
29.955266;31.215645;6485;29.955266000000002;31.215644999999999;Dressel 20;Alexandria;GFS;Aegyptus
17.933333;40.633333;40154;17.933333000000001;40.633333000000000;Brindisian amphora;Brindisi;DAMAS;Italia
3.92276;44.866155;23582;3.922760000000000;44.866154999999999;Dressel 20;Arlempdes;VICTORN;Aquitania
8.608962;49.473071;11979;8.608962000000000;49.473070999999997;Dressel 20;Ladenburg (Lopodunum);QCCA;Germania Superior
7.041042;46.880888;20230;7.041042000000000;46.880887999999999;Dressel 20;Avenches;LMINICIFIRMONI;Germania Superior
17.85;40.683333;37499;17.850000000000001;40.683332999999998;Brindisian amphora;Canale Giancola;VISELLI;Italia
19.643611;41.783611;30401;19.643611000000000;41.783611000000001;Lamboglia 2;Lezhë;ROD;Dalmatia
2.1741;41.398371;33250;2.174100000000000;41.398370999999997;Pascual 1;Barcelona;LESB;Tarraconensis
8.186805;50.181629;14207;8.186805000000000;50.181629000000001;Dressel 20;Orlen;MMCS;Germania Superior
2.244789;41.447145;18036;2.244789000000000;41.447144999999999;Pascual 1;Badalona;C;Tarraconensis
-0.093145;51.514248;15838;-0.093145000000000;51.514248000000002;Dressel 20;London;CALPVRNIB;Britannia
2.169444;41.629167;19134;2.169444000000000;41.629167000000002;Pascual 1;Caldes de Montbui;MCN;Tarraconensis
5.980524;43.315395;39403;5.980524000000000;43.315395000000002;Dressel 20;Grand Loou;QCCLE;Narbonensis
-0.25;51.833333;17118;-0.250000000000000;51.833333000000003;Dressel 20;St. Albans;CA;Britannia
3.0;39.316667;19342;3.000000000000000;39.316667000000002;Lamboglia 2;Colònia de Sant Jordi;SEVERVS;Tarraconensis
17.933333;40.633333;38294;17.933333000000001;40.633333000000000;Brindisian amphora;Brindisi;VEHILI;Italia
-6.79846;34.0531;8661;-6.798460000000000;34.053100000000001;Dressel 20;Salé (Sala);LAT;Mauretania Tingitana
-5.646083;37.471248;13675;-5.646083000000000;37.471248000000003;Dressel 20;Carmona;TATILIASIATICI;Baetica
3.08808;39.569726;19339;3.088080000000000;39.569726000000003;Pascual 1;Vilafranca;POT;Tarraconensis
17.85;40.683333;34830;17.850000000000001;40.683332999999998;Brindisian amphora;Canale Giancola;APOLONI;Italia
9.526918;46.856753;18288;9.526918000000000;46.856752999999998;Mortarium;Chur;R;Raetia
2.444503;41.542113;19266;2.444503000000000;41.542113000000001;Pascual 1;Mataró;NC;Tarraconensis
17.85;40.683333;37310;17.850000000000001;40.683332999999998;Brindisian amphora;Canale Giancola;EPIGENVS;Italia
13.5;43.633333;36178;13.500000000000000;43.633333000000000;Lamboglia 2;Ancona;MENOP;Italia
1.433188;43.599516;15076;1.433188000000000;43.599516000000001;Dressel 2-4 Catalan;Toulouse;PR;Narbonensis
11.55;45.55;36783;11.550000000000001;45.549999999999997;Dressel 6B;Vicenza;APICI;Italia
10.383333;43.716667;8601;10.383333000000000;43.716667000000001;Dressel 6A;Pisa;LSALVI;Italia
2.949407;39.144609;18174;2.949407000000000;39.144609000000003;Africana 2;Isla de Cabrera;LEPMIBSCD;Tarraconensis
4.942851;43.383543;9973;4.942851000000000;43.383543000000003;Dressel 1B;Golfe de Fos;DA;Narbonensis
-0.266667;39.683333;26351;-0.266667000000000;39.683332999999998;Africana 2A Grande;Sagunto;DAT;Tarraconensis
2.007994;41.396145;36559;2.007994000000000;41.396144999999997;Pascual 1;Sant Vicenç dels Horts;PRIMVL;Tarraconensis
13.188056;45.802222;13847;13.188056000000000;45.802222000000000;Dressel 6A;Carlino;LTARVF;Italia
17.933333;40.633333;40388;17.933333000000001;40.633333000000000;Brindisian amphora;Brindisi;LEONTISCVS;Italia
30.841804;29.309949;38506;30.841804000000000;29.309949000000000;Brindisian amphora;Fayum;ANINI;Aegyptus
8.566917;50.271515;14431;8.566917000000000;50.271515000000001;Dressel 20;Niederbieber;QIA;Germania Superior
9.2;45.466667;9778;9.199999999999999;45.466667000000001;Lamboglia 2;Milano;LTAR;Italia
2.040791;41.342647;36438;2.040791000000000;41.342646999999999;Pascual 1;Sant Boi de Llobregat;IVLIANICETI;Tarraconensis
2.244789;41.447145;17826;2.244789000000000;41.447144999999999;Dressel 2-4 Catalan;Badalona;MSC;Tarraconensis
8.220846;47.476756;20461;8.220846000000000;47.476756000000002;Amphora incerta;Windisch;BAO;Germania Superior
17.933333;40.633333;38105;17.933333000000001;40.633333000000000;Brindisian amphora;Brindisi;VEHILI;Italia
8.416667;45.316667;25349;8.416667000000000;45.316667000000002;Dressel 6A;Vercelli;THB;Italia
-5.557032;34.073697;8814;-5.557032000000000;34.073697000000003;Dressel 20;Volubilis;DOM;Mauretania Tingitana
11.416667;42.45;25480;11.416667000000000;42.450000000000003;Dressel 1A;Capalbio;NE;Italia
-5.557032;34.073697;18670;-5.557032000000000;34.073697000000003;Amphora incerta;Volubilis;BCM;Mauretania Tingitana
5.385919;43.176488;18511;5.385919000000000;43.176487999999999;Dressel 2-4 Catalan;Île de Riou;AMAND;Narbonensis
2.667809;41.618024;8748;2.667809000000000;41.618023999999998;Amphora incerta;Calella;ACASTI;Tarraconensis
7.717205;47.536818;7794;7.717205000000000;47.536817999999997;Dressel 20;Augst;SCALENSIA;Germania Superior
17.933333;40.633333;41085;17.933333000000001;40.633333000000000;Brindisian amphora;Brindisi;ANINIANA;Italia
2.62341;41.602356;8542;2.623410000000000;41.602356000000000;Pascual 1;Sant Pol de Mar;CHR;Tarraconensis
17.85;40.683333;37321;17.850000000000001;40.683332999999998;Brindisian amphora;Canale Giancola;LIBO;Italia
-0.093145;51.514248;20533;-0.093145000000000;51.514248000000002;Amphora incerta;London;HAL;Britannia
4.032143;46.92678;20788;4.032143000000000;46.926780000000001;Dressel 1;Mont-Beuvray;BD;Lugdunensis
-5.082599;37.542203;41702;-5.082599000000000;37.542203000000001;Dressel 20;Écija;SCLC;Baetica
12.488056;45.78;32637;12.488056000000000;45.780000000000001;Dressel 6B;Oderzo;CLB;Italia
4.622744;46.710232;21094;4.622744000000000;46.710231999999998;Dressel 1;Cersot;DAMT;Lugdunensis
-5.666942;37.615058;13487;-5.666942000000000;37.615057999999998;Dressel 20;Alcolea del Río;IICCLLM;Baetica
8.186805;50.181629;14173;8.186805000000000;50.181629000000001;Dressel 20;Orlen;LCMY;Germania Superior
6.068075;48.841401;25417;6.068075000000000;48.841400999999998;Dressel 20;Dieulouard;PORLVCANI;Belgica
6.95;50.933333;13938;6.950000000000000;50.933332999999998;Dressel 20;Köln;LABP;Germania Inferior
-0.706103;38.264987;23937;-0.706103000000000;38.264986999999998;Dressel 2-4 Catalan;Elche;IVLITHEOPHIL;Tarraconensis
4.032143;46.92678;24381;4.032143000000000;46.926780000000001;Dressel 1;Mont-Beuvray;CA;Lugdunensis
-0.25;51.833333;16685;-0.250000000000000;51.833333000000003;Dressel 20;St. Albans;GRA;Britannia
17.933333;40.633333;38354;17.933333000000001;40.633333000000000;Brindisian amphora;Brindisi;VEHILI;Italia
3.008816;43.184417;25627;3.008816000000000;43.184417000000003;Dressel 2-4 Catalan;Narbonne;CE;Narbonensis
8.279096;49.984188;19356;8.279095999999999;49.984188000000003;Dressel 20;Mainz;QSC;Germania Superior
-5.557032;34.073697;9101;-5.557032000000000;34.073697000000003;Dressel 20;Volubilis;LSL;Mauretania Tingitana
7.4252;43.735208;26286;7.425200000000000;43.735208000000000;Africana 2A Grande;Monaco;VIC;Italia
3.104371;42.517594;5266;3.104371000000000;42.517594000000003;Dressel 20;Port-Vendres;CSEMPRONIPOLYCLITI;Narbonensis
5.866667;51.833333;5691;5.866667000000000;51.833333000000003;Dressel 20;Nijmegen;SAXOFERRI;Germania Inferior
-6.002725;34.686636;8800;-6.002725000000000;34.686636000000000;Dressel 20;Souk-el-Arba;BELNES;Mauretania Tingitana
-2.016667;54.966667;16437;-2.016667000000000;54.966667000000001;Dressel 20;Corbridge;IIIMINICIOR;Britannia
-6.227507;36.59952;27343;-6.227507000000000;36.599519999999998;Beltrán 2B;El Puerto de Santa María;SIICVVA;Baetica
-6.494247;34.334284;37618;-6.494247000000000;34.334283999999997;Dressel 20;Sidi Ali ben ahmed (Thamusida);MAR;Mauretania Tingitana
2.3;49.9;30612;2.300000000000000;49.899999999999999;Dressel 20;Amiens;L;Belgica
-2.65;52.666667;16423;-2.650000000000000;52.666666999999997;Dressel 20;Wroxeter;CMARISILVANI;Britannia
17.85;40.683333;35347;17.850000000000001;40.683332999999998;Brindisian amphora;Canale Giancola;LVKAON;Italia
2.040791;41.342647;19460;2.040791000000000;41.342646999999999;Dressel 2-4 Catalan;Sant Boi de Llobregat;SIGNUM;Tarraconensis
12.488056;45.78;32678;12.488056000000000;45.780000000000001;Dressel 6B;Oderzo;PQSCAPVLAE;Italia
12.283333;41.75;29461;12.283333000000001;41.750000000000000;Dressel 20;Ostia Antica;QSP;Italia
-5.666942;37.615058;13547;-5.666942000000000;37.615057999999998;Dressel 20;Alcolea del Río;MMCS;Baetica
17.85;40.683333;34550;17.850000000000001;40.683332999999998;Brindisian amphora;Canale Giancola;APELLAE;Italia
17.933333;40.633333;40274;17.933333000000001;40.633333000000000;Brindisian amphora;Brindisi;HPAIOC;Italia
7.616482;48.371252;8078;7.616482000000000;48.371251999999998;Dressel 20;Ehl;MQFF;Germania Superior
17.933333;40.633333;40336;17.933333000000001;40.633333000000000;Brindisian amphora;Brindisi;HERMOGE;Italia
4.359623;43.833778;8468;4.359623000000000;43.833778000000002;Gauloise 1;Nîmes;CNETTNR;Narbonensis
-0.533333;53.233333;16416;-0.533333000000000;53.233333000000002;Dressel 20;Lincoln;PMANISVP;Britannia
34.0;29.5;38636;34.000000000000000;29.500000000000000;Brindisian amphora;Sinai Peninsula;MS;Arabia
-5.52751;37.658961;13242;-5.527510000000000;37.658960999999998;Dressel 20;Lora del Río;LVALERITROPHIMI;Baetica
7.454263;47.658519;7978;7.454263000000000;47.658518999999998;Dressel 20;Sierentz;LFO;Germania Superior
-0.986232;37.605121;21575;-0.986232000000000;37.605120999999997;Greco-Itálica;Cartagena;CM;Tarraconensis
17.85;40.683333;35185;17.850000000000001;40.683332999999998;Brindisian amphora;Canale Giancola;HERMAISCI;Italia
11.883333;45.416667;9647;11.883333000000000;45.416666999999997;Amphora incerta;Padova;SYNT;Italia
8.186805;50.181629;14183;8.186805000000000;50.181629000000001;Dressel 20;Orlen;PPCM;Germania Superior
-2.678333;51.007222;16460;-2.678333000000000;51.007221999999999;Dressel 20;Ilchester;PNN;Britannia
0.9;51.883333;16137;0.900000000000000;51.883333000000000;Dressel 20;Colchester;MIM;Britannia
17.933333;40.633333;38161;17.933333000000001;40.633333000000000;Brindisian amphora;Brindisi;VEHILI;Italia
2.195146;46.562194;41755;2.195146000000000;46.562193999999998;Dressel 1;Châteaumeillant;ILEGIBILE;Aquitania
8.566917;50.271515;14154;8.566917000000000;50.271515000000001;Dressel 20;Niederbieber;LCH;Germania Superior
-0.45;38.3;23544;-0.450000000000000;38.299999999999997;Dressel 30 - Keay 1B;Alicante;MAVRCAESTVBVS;Tarraconensis
-1.421389;54.987778;16255;-1.421389000000000;54.987777999999999;Dressel 20;South Shields;LIVNIMELISSI;Britannia
-0.3;39.583333;23988;-0.300000000000000;39.583333000000003;Dressel 20;El Puig;BCMATERNISAGYNTO;Tarraconensis
-0.706103;38.264987;24089;-0.706103000000000;38.264986999999998;Amphora incerta;Elche;IMON;Tarraconensis
4.032143;46.92678;24348;4.032143000000000;46.926780000000001;Dressel 1;Mont-Beuvray;AEAF;Lugdunensis
17.933333;40.633333;38168;17.933333000000001;40.633333000000000;Brindisian amphora;Brindisi;VEHILI;Italia
6.883333;44.066667;4854;6.883333000000000;44.066667000000002;Gauloise 1;Villetelle;LAET;Italia
-5.52751;37.658961;7006;-5.527510000000000;37.658960999999998;Dressel 20;Lora del Río;POPVLI;Baetica
-3.05;55.933333;15425;-3.050000000000000;55.933332999999998;Dressel 20;Musselburgh;LAEL;Caledonia
2.257591;46.087803;8618;2.257591000000000;46.087803000000001;Dressel 1B;Peyrat-la-Nonière;TRIDENTS;Aquitania
-0.751789;37.802242;23689;-0.751789000000000;37.802242000000000;Lamboglia 2;San Pedro;PLATO;Tarraconensis
4.798681;47.326304;21101;4.798681000000000;47.326304000000000;Dressel 1;Mâlain;DX;Lugdunensis
2.244789;41.447145;17969;2.244789000000000;41.447144999999999;Pascual 1;Badalona;MPORCI;Tarraconensis
7.127766;43.562407;32115;7.127766000000000;43.562407000000000;Dressel 1B;Antibes;MA;Narbonensis
8.166667;49.833333;27862;8.166667000000000;49.833333000000003;Dressel 20;Rheinhessen;QIM;Germania Superior
17.933333;40.633333;40107;17.933333000000001;40.633333000000000;Brindisian amphora;Brindisi;CTESO;Italia
-0.093145;51.514248;30702;-0.093145000000000;51.514248000000002;Mortarium;London;PLNEAS;Britannia
12.283333;41.75;29674;12.283333000000001;41.750000000000000;Dressel 20;Ostia Antica;VRS;Italia
8.914176;50.134229;27508;8.914175999999999;50.134228999999998;Dressel 20;Hanau;ENNIORVMIVLIORVM;Germania Superior
17.933333;40.633333;38475;17.933333000000001;40.633333000000000;Brindisian amphora;Brindisi;APELAES;Italia
8.186805;50.181629;14711;8.186805000000000;50.181629000000001;Dressel 20;Orlen;DOM;Germania Superior
7.787355;48.600381;7865;7.787355000000000;48.600380999999999;Dressel 2-4 Cilician;Strasbourg;MOCTA;Germania Superior
17.648333;43.054167;24360;17.648333000000001;43.054167000000000;Lamboglia 2;Metkovic;SA;Dalmatia
8.44;39.881944;25302;8.440000000000000;39.881943999999997;Amphora incerta;Sardegna;HE;Corsica et Sardinia
3.117809;42.139543;17647;3.117809000000000;42.139543000000003;Dressel 20;Ampurias;LAF;Tarraconensis
8.645835;50.159548;14139;8.645835000000000;50.159548000000001;Dressel 20;Nida-Heddernheim;QCCF;Germania Superior
17.933333;40.633333;37679;17.933333000000001;40.633333000000000;Brindisian amphora;Brindisi;CANINI;Italia
4.949001;47.136829;23832;4.949001000000000;47.136828999999999;Dressel 20;Nuits-Saint-Georges;SAENIANES;Lugdunensis
1.725695;41.222982;6230;1.725695000000000;41.222982000000002;Africana 2C gra.;Vilanova i la Geltrú;SV;Tarraconensis
8.608962;49.473071;18888;8.608962000000000;49.473070999999997;Dressel 20;Ladenburg (Lopodunum);ROMANI;Germania Superior
-0.093145;51.514248;30710;-0.093145000000000;51.514248000000002;Amphora incerta;London;SEXMTC;Britannia
17.85;40.683333;35177;17.850000000000001;40.683332999999998;Brindisian amphora;Canale Giancola;DIOCLEI;Italia
6.126699;45.906206;39341;6.126699000000000;45.906205999999997;Dressel 20;Annecy;CAN;Narbonensis
4.14196;39.934563;12585;4.141960000000000;39.934562999999997;Pascual 1;Alayor;F;Tarraconensis
8.93975;48.476092;12782;8.939750000000000;48.476092000000001;Amphora incerta;Rottenburg;MB;Germania Superior
8.220846;47.476756;25431;8.220846000000000;47.476756000000002;Amphora incerta;Windisch;SEX;Germania Superior
11.25;42.5;33886;11.250000000000000;42.500000000000000;Dressel 1C;Albinia;DAS;Italia
-2.016667;54.966667;16364;-2.016667000000000;54.966667000000001;Dressel 20;Corbridge;PMMASS;Britannia
6.142939;43.05939;18550;6.142939000000000;43.059390000000000;Dressel 2-4 Catalan;Presqu'île de Giens;PH;Narbonensis
13.169167;45.766389;13846;13.169167000000000;45.766388999999997;Lamboglia 2;Marano Lagunare;NICIA;Italia
8.449297;50.090194;14273;8.449297000000000;50.090193999999997;Dressel 20;Hofheim am Taunus;EROTIS;Germania Superior
-5.082599;37.542203;38873;-5.082599000000000;37.542203000000001;Dressel 20;Écija;LIVNIMELISSI;Baetica
-0.093145;51.514248;17010;-0.093145000000000;51.514248000000002;Dressel 20;London;THALI;Britannia
-0.5805;44.840439;21447;-0.580500000000000;44.840439000000003;Dressel 2-4 Catalan;Bordeaux;P;Aquitania
-1.983333;51.733333;16567;-1.983333000000000;51.733333000000002;Dressel 20;Cirencester;POROCODV;Britannia
-0.093145;51.514248;30685;-0.093145000000000;51.514248000000002;Mortarium;London;ANDIDFECIT;Britannia
3.703194;48.522784;26594;3.703194000000000;48.522784000000001;Amphora incerta;Lió;QOCL;Lugdunensis
-2.933333;54.883333;32257;-2.933333000000000;54.883333000000000;Dressel 20;Carlisle;DOM;Britannia
13.5;43.633333;36200;13.500000000000000;43.633333000000000;Lamboglia 2;Ancona;F;Italia
5.65;43.166668;34017;5.650000000000000;43.166668000000001;Dressel 1;Baie de la Ciotat;DIESC;Narbonensis
1.433188;43.599516;13909;1.433188000000000;43.599516000000001;Dressel 20;Toulouse;AIS;Narbonensis
2.007994;41.396145;36356;2.007994000000000;41.396144999999997;Dressel 2-4 Catalan;Sant Vicenç dels Horts;F;Tarraconensis
17.933333;40.633333;40909;17.933333000000001;40.633333000000000;Brindisian amphora;Brindisi;TARVLAESVLLAEL;Italia
1.333333;51.283333;15525;1.333333000000000;51.283332999999999;Dressel 20;Edinburgh;MAEME;Britannia
11.416667;42.45;25484;11.416667000000000;42.450000000000003;Dolium;Capalbio;FACTCOSAE;Italia
17.933333;40.633333;38389;17.933333000000001;40.633333000000000;Brindisian amphora;Brindisi;ALEXAN;Italia
12.283333;41.75;20357;12.283333000000001;41.750000000000000;Amphora incerta;Ostia Antica;ES;Italia
-3.533333;50.7;15902;-3.533333000000000;50.700000000000003;Dressel 20;Exeter;CEFP;Britannia
17.933333;40.633333;41022;17.933333000000001;40.633333000000000;Brindisian amphora;Brindisi;ANINIANA;Italia
6.148113;46.195602;9448;6.148113000000000;46.195602000000001;Dressel 20;Genève;IF;Narbonensis
-0.54774;47.473806;5499;-0.547740000000000;47.473806000000003;Dressel 20;Angers;QMR;Lugdunensis
7.717205;47.536818;7572;7.717205000000000;47.536817999999997;Dressel 20;Augst;POROCODV;Germania Superior
-2.933333;54.883333;15558;-2.933333000000000;54.883333000000000;Dressel 20;Carlisle;PANNIRVFI;Britannia
-8.674242;37.101782;4826;-8.674242000000000;37.101782000000000;Beltrán 72;Lagos;ANGE;Lusitania
17.933333;40.633333;41009;17.933333000000001;40.633333000000000;Brindisian amphora;Brindisi;ANINIANA;Italia
3.008816;43.184417;25630;3.008816000000000;43.184417000000003;Pascual 1;Narbonne;E;Narbonensis
-5.52751;37.658961;33326;-5.527510000000000;37.658960999999998;Dressel 20;Lora del Río;CON;Baetica
-0.25;51.833333;17115;-0.250000000000000;51.833333000000003;Dressel 20;St. Albans;C;Britannia
4.094782;40.089229;12596;4.094782000000000;40.089229000000003;Dressel 20;"Caballería, Cabo de";LIVNIMELISSI;Tarraconensis
1.257805;45.831534;25120;1.257805000000000;45.831533999999998;Oberaden 74;Limoges;SEXDOMITI;Aquitania
19.643611;41.783611;30425;19.643611000000000;41.783611000000001;Lamboglia 2;Lezhë;Z;Dalmatia
-3.0;53.166667;16683;-3.000000000000000;53.166666999999997;Dressel 20;Broughton;GRA;Britannia
6.866667;43.433333;9404;6.866667000000000;43.433332999999998;Dressel 2-4 Catalan;Rade d'Agay;TA;Narbonensis
4.942851;43.383543;10203;4.942851000000000;43.383543000000003;Dressel 20;Golfe de Fos;LVC;Narbonensis
12.283333;41.75;20321;12.283333000000001;41.750000000000000;Africana;Ostia Antica;CI;Italia
-5.02037;37.810702;13258;-5.020370000000000;37.810701999999999;Dressel 20;Almodóvar del Río;CIVLIBAR;Baetica
17.933333;40.633333;40522;17.933333000000001;40.633333000000000;Brindisian amphora;Brindisi;MENOPILVS;Italia
-5.082599;37.542203;36026;-5.082599000000000;37.542203000000001;Amphora incerta;Écija;TCOIMVIAN;Baetica
17.933333;40.633333;38250;17.933333000000001;40.633333000000000;Brindisian amphora;Brindisi;VEHILI;Italia
4.861363;45.524737;24738;4.861363000000000;45.524737000000002;Dressel 20;Sainte-Colombe;CANTONIQVIETI;Narbonensis
17.85;40.683333;34713;17.850000000000001;40.683332999999998;Brindisian amphora;Canale Giancola;APOLONIDA;Italia
11.883333;45.416667;32774;11.883333000000000;45.416666999999997;Dressel 6B;Padova;VRBA;Italia
4.846711;45.748457;24574;4.846711000000000;45.748457000000002;Amphora incerta;Lyon?;IANVARI;Lugdunensis
4.949001;47.136829;17466;4.949001000000000;47.136828999999999;Mortarium;Nuits-Saint-Georges;MVXIVIVS;Lugdunensis
17.85;40.683333;35350;17.850000000000001;40.683332999999998;Brindisian amphora;Canale Giancola;LVKAON;Italia
17.85;40.683333;37358;17.850000000000001;40.683332999999998;Brindisian amphora;Canale Giancola;PTOLEMAEI;Italia
17.933333;40.633333;40853;17.933333000000001;40.633333000000000;Brindisian amphora;Brindisi;SOTERICO;Italia
2.040791;41.342647;36348;2.040791000000000;41.342646999999999;Dressel 2-4 Catalan;Sant Boi de Llobregat;F;Tarraconensis
-5.107258;37.802053;13264;-5.107258000000000;37.802053000000001;Dressel 20;Posadas;LFC;Baetica
17.933333;40.633333;40293;17.933333000000001;40.633333000000000;Brindisian amphora;Brindisi;EVTVCHI;Italia
8.866667;44.9;20388;8.866667000000000;44.899999999999999;Amphora incerta;Tortona;HDD;Italia
-0.751789;37.802242;23659;-0.751789000000000;37.802242000000000;Lamboglia 2;San Pedro;VICTORIA;Tarraconensis
-9.13550662994385;38.7071647644043;25248;-9.135506629943848;38.707164764404297;Keay 16;Lisboa;LEVGEN;Lusitania
5.866667;51.833333;5732;5.866667000000000;51.833333000000003;Dressel 20;Nijmegen;Q;Germania Inferior
2.007994;41.396145;36528;2.007994000000000;41.396144999999997;Dressel 2-4 Catalan;Sant Vicenç dels Horts;P;Tarraconensis
-0.093145;51.514248;15629;-0.093145000000000;51.514248000000002;Dressel 20;London;CAPF;Britannia
4.032143;46.92678;24388;4.032143000000000;46.926780000000001;Dressel 1;Mont-Beuvray;CSEX;Lugdunensis
3.449751;43.565809;8429;3.449751000000000;43.565809000000002;Pascual 1 similis;"Aspiran,Herault";LAETI;Narbonensis
3.008816;43.184417;10598;3.008816000000000;43.184417000000003;Pascual 1;Narbonne;CO;Narbonensis
10.333333;36.866667;27118;10.333333000000000;36.866667000000000;Amphora incerta;Cartago;QCOCL;Africa Proconsularis
11.883333;45.416667;32309;11.883333000000000;45.416666999999997;Dressel 6B;Padova;FELICIO;Italia
4.942851;43.383543;10011;4.942851000000000;43.383543000000003;Dressel 1B;Golfe de Fos;ANCORA;Narbonensis
2.195146;46.562194;41733;2.195146000000000;46.562193999999998;Dressel 1;Châteaumeillant;LICI;Aquitania
17.933333;40.633333;40532;17.933333000000001;40.633333000000000;Brindisian amphora;Brindisi;MENOPILVS;Italia
1.333333;51.283333;16056;1.333333000000000;51.283332999999999;Dressel 20;Edinburgh;LHRR;Britannia
-5.02037;37.810702;13260;-5.020370000000000;37.810701999999999;Dressel 20;Almodóvar del Río;CIVLIBAR;Baetica
-0.093145;51.514248;15496;-0.093145000000000;51.514248000000002;Dressel 20;London;ACIRGI;Britannia
7.454263;47.658519;8138;7.454263000000000;47.658518999999998;Dressel 20;Sierentz;R;Germania Superior
12.393333;45.544444;10509;12.393333000000000;45.544443999999999;Dressel ante 6B;Altino;PQSCAPVLAE;Italia
3.129119;39.356733;19320;3.129119000000000;39.356732999999998;Dressel 1A;Santanyi;POENI;Tarraconensis
10.616667;44.616667;34227;10.616667000000000;44.616667000000000;Amphora incerta;Reggio Emilia;MHERPICEN;Italia
3.238794;43.213348;29490;3.238794000000000;43.213348000000003;Dressel 20;Aude;SAMIS;Narbonensis
10.083333;44.7;34159;10.083333000000000;44.700000000000003;Amphora incerta;Provincia di Parma;CAERCAEK;Italia
17.933333;40.633333;38372;17.933333000000001;40.633333000000000;Brindisian amphora;Brindisi;VEHILI;Italia
2.244789;41.447145;17972;2.244789000000000;41.447144999999999;Pascual 1;Badalona;MPORCI;Tarraconensis
1.447891;43.522994;40339;1.447891000000000;43.522993999999997;Brindisian amphora;Vieille-Toulouse;HERMOGE;Narbonensis
-7.841101;37.0286;8408;-7.841101000000000;37.028599999999997;Keay 16;Olhao;IVNIO;Lusitania
3.008816;43.184417;6056;3.008816000000000;43.184417000000003;Dressel 2-4 Catalan;Narbonne;LVOLTEIL;Narbonensis
11.883333;45.416667;33024;11.883333000000000;45.416666999999997;Dressel 6B;Padova;CLAEK;Italia
-5.646083;37.471248;33369;-5.646083000000000;37.471248000000003;Dressel 20;Carmona;LCS;Baetica
3.443291;43.280977;6130;3.443291000000000;43.280977000000000;Dressel 1;Hérault;STE;Narbonensis
-2.016667;54.966667;32742;-2.016667000000000;54.966667000000001;Dressel 20;Corbridge;LCAX;Britannia
12.283333;41.75;20348;12.283333000000001;41.750000000000000;Dressel 20;Ostia Antica;PCHO;Italia
4.846711;45.748457;21550;4.846711000000000;45.748457000000002;Dressel 1;Lyon?;SES;Lugdunensis
0.192722;49.511248;30501;0.192722000000000;49.511248000000002;Dressel 20;Harfleur;LFF;Lugdunensis
17.85;40.683333;35903;17.850000000000001;40.683332999999998;Brindisian amphora;Canale Giancola;LMARCISATVR;Italia
4.828233;46.314074;21145;4.828233000000000;46.314073999999998;Dressel 1;Mâcon;NV;Lugdunensis
8.645835;50.159548;27602;8.645835000000000;50.159548000000001;Dressel 20;Nida-Heddernheim;FAVSTICLAR;Germania Superior
8.279096;49.984188;14791;8.279095999999999;49.984188000000003;Dressel 20;Mainz;AQFVA;Germania Superior
3.203926;42.337045;17906;3.203926000000000;42.337045000000003;Pascual 1;Port de la Selva;T;Tarraconensis
7.041042;46.880888;20248;7.041042000000000;46.880887999999999;Dressel 20;Avenches;CCMRINI;Germania Superior
4.873453;45.524785;24861;4.873453000000000;45.524785000000001;Dressel 20;Vienne;SAENIANES;Narbonensis
-6.115818;34.60144;18103;-6.115818000000000;34.601439999999997;Dressel 20;Banasa;LCMY;Mauretania Tingitana
3.008816;43.184417;10590;3.008816000000000;43.184417000000003;Pascual 1;Narbonne;APOL;Narbonensis
4.860743;45.531592;29486;4.860743000000000;45.531592000000003;Dressel 20;Saint-Romain-en-Gal;SALS;Narbonensis
4.873453;45.524785;24909;4.873453000000000;45.524785000000001;Dressel 20;Vienne;LVIBICHROMIS;Narbonensis
0.705603;44.4071;21305;0.705603000000000;44.407100000000000;Dressel 1;Villeneuve-sur-Lot;AV;Aquitania
-5.233333;37.833333;26747;-5.233333000000000;37.833333000000003;Dressel 20;Hornachuelos;LFC;Baetica
17.933333;40.633333;40778;17.933333000000001;40.633333000000000;Brindisian amphora;Brindisi;PIILADE;Italia
3.008816;43.184417;25638;3.008816000000000;43.184417000000003;Dressel 2-4 Catalan;Narbonne;L;Narbonensis
4.860743;45.531592;29513;4.860743000000000;45.531592000000003;Dressel 20;Saint-Romain-en-Gal;SCALESIAAG;Narbonensis
4.032143;46.92678;20802;4.032143000000000;46.926780000000001;Dressel 1;Mont-Beuvray;CO;Lugdunensis
8.279096;49.984188;19386;8.279095999999999;49.984188000000003;Dressel 20;Mainz;FSCIMNIANO;Germania Superior
8.282909;50.009937;19036;8.282909000000000;50.009937000000001;Dressel 20;Mainz-Kastel;MECC;Germania Superior
17.933333;40.633333;38404;17.933333000000001;40.633333000000000;Brindisian amphora;Brindisi;APEICAE;Italia
4.949001;47.136829;20393;4.949001000000000;47.136828999999999;Dressel 20;Nuits-Saint-Georges;MAVR;Lugdunensis
9.262903;41.368374;18555;9.262903000000000;41.368374000000003;Dressel 2-4 Catalan;Île Cavallo;PTE;Corsica et Sardinia
1.139829;41.076036;32232;1.139829000000000;41.076036000000002;Tegula;Salou;POMPEI;Tarraconensis
6.807625;47.449211;8759;6.807625000000000;47.449210999999998;Dressel 20;Mandeure;LIVNIMELISSI;Germania Superior
9.279149;48.870328;12008;9.279149000000000;48.870328000000001;Dressel 20;Neckarrems;QVC;Germania Superior
-0.6;53.65;15469;-0.600000000000000;53.649999999999999;Dressel 20;Winterton;MAR;Britannia
17.933333;40.633333;40643;17.933333000000001;40.633333000000000;Brindisian amphora;Brindisi;PHILEMONOS;Italia
4.636331;43.681659;32062;4.636331000000000;43.681659000000003;Gauloise 4;Arles;TCRVT;Narbonensis
1.107423;41.155913;32198;1.107423000000000;41.155912999999998;Amphora incerta;Reus;FRONTO;Tarraconensis
-5.02037;37.810702;11668;-5.020370000000000;37.810701999999999;Dressel 20;Almodóvar del Río;EC;Baetica
4.032143;46.92678;20961;4.032143000000000;46.926780000000001;Dressel 1;Mont-Beuvray;SINE;Lugdunensis
8.618248;48.168228;14064;8.618247999999999;48.168227999999999;Dressel 20;Kastell Marienfels;TATILIASIATICI;Germania Superior
11.883333;45.416667;33052;11.883333000000000;45.416666999999997;Dressel 6B;Padova;PAGANI;Italia
11.883333;45.416667;32830;11.883333000000000;45.416666999999997;Dressel 6B;Padova;VARIPACCI;Italia
4.032143;46.92678;20885;4.032143000000000;46.926780000000001;Dressel 1;Mont-Beuvray;MAN;Lugdunensis
2.244789;41.447145;18043;2.244789000000000;41.447144999999999;Pascual 1;Badalona;R;Tarraconensis
10.9;44.5;34186;10.900000000000000;44.500000000000000;Amphora incerta;Modena;AVCTVSBARF;Italia
8.684167;50.11552;14077;8.684167000000000;50.115519999999997;Dressel 20;Frankfurt am Main;ACIRGI;Germania Superior
1.333333;51.283333;17103;1.333333000000000;51.283332999999999;Dressel 20;Edinburgh;VRITTIPV;Britannia
4.846711;45.748457;17376;4.846711000000000;45.748457000000002;Dressel 20;Lyon?;POROCODV;Lugdunensis
2.244789;41.447145;17837;2.244789000000000;41.447144999999999;Pascual 1;Badalona;SLL;Tarraconensis
10.033333;45.116667;9825;10.033333000000001;45.116667000000000;Lamboglia 2;Cremona;ALI;Italia
-2.333333;55.016667;16931;-2.333333000000000;55.016666999999998;Dressel 20;Housesteads;FSCIMNIANO;Britannia
8.220846;47.476756;20601;8.220846000000000;47.476756000000002;Dressel 20;Windisch;MPF;Germania Superior
3.443291;43.280977;39380;3.443291000000000;43.280977000000000;Dressel 20;Hérault;LAVRELIGERMANI;Narbonensis
4.860743;45.531592;24939;4.860743000000000;45.531592000000003;Dressel 20;Saint-Romain-en-Gal;PIVLICRISPI;Narbonensis
2.169444;41.629167;19160;2.169444000000000;41.629167000000002;Dressel 2-4 Catalan;Caldes de Montbui;LLQ;Tarraconensis
4.860743;45.531592;9227;4.860743000000000;45.531592000000003;Dressel 20;Saint-Romain-en-Gal;CMARISILVANI;Narbonensis
9.363795;48.683449;14012;9.363795000000000;48.683449000000003;Dressel 20;Köngen;PANNIRVFI;Germania Superior
-2.016667;54.966667;16927;-2.016667000000000;54.966667000000001;Dressel 20;Corbridge;FSCIMNIANO;Britannia
8.359164;49.632784;14414;8.359164000000000;49.632784000000001;Dressel 20;Worms;DIA;Germania Superior
7.041042;46.880888;20717;7.041042000000000;46.880887999999999;Dressel 20;Avenches;SAENIANES;Germania Superior
4.828233;46.314074;21102;4.828233000000000;46.314073999999998;Dressel 1;Mâcon;EA;Lugdunensis
0.158146;49.521309;30585;0.158146000000000;49.521309000000002;Dressel 20;Rouen;SAXOFERREO;Lugdunensis
17.85;40.683333;35920;17.850000000000001;40.683332999999998;Brindisian amphora;Canale Giancola;LMARCISATVR;Italia
3.066667;41.75;8739;3.066667000000000;41.750000000000000;Tarraconense 1;Costa Brava;MEVI;Tarraconensis
3.127051;43.289615;6213;3.127051000000000;43.289614999999998;Dressel 2-4 Catalan;Nissan-Lez-Ensérune;LVOLTEILILVOLTEIL;Narbonensis
17.85;40.683333;35061;17.850000000000001;40.683332999999998;Brindisian amphora;Canale Giancola;DIOCLES;Italia
8.279096;49.984188;19399;8.279095999999999;49.984188000000003;Dressel 20;Mainz;LVALERIVITALIS;Germania Superior
-1.75;54.666667;16543;-1.750000000000000;54.666666999999997;Dressel 20;Durhamshire;DOM;Britannia
4.873453;45.524785;29546;4.873453000000000;45.524785000000001;Dressel 20;Vienne;LSL;Narbonensis
7.717205;47.536818;7578;7.717205000000000;47.536817999999997;Dressel 20;Augst;LQS;Germania Superior
-5.666942;37.615058;13527;-5.666942000000000;37.615057999999998;Dressel 20;Alcolea del Río;PNN;Baetica
4.942851;43.383543;10338;4.942851000000000;43.383543000000003;Dressel 20;Golfe de Fos;LAT;Narbonensis
2.444503;41.542113;19257;2.444503000000000;41.542113000000001;Dressel 2-4 Catalan;Mataró;DEI;Tarraconensis
4.14196;39.934563;12651;4.141960000000000;39.934562999999997;Pascual 1;Alayor;ANIIAVII;Tarraconensis
9.254185;41.341096;18580;9.254185000000000;41.341096000000000;Dressel 2-4 Catalan;Îles Lavezzi;VIC;Corsica et Sardinia
11.883333;45.416667;9678;11.883333000000000;45.416666999999997;Amphora incerta;Padova;ICOST;Italia
17.933333;40.633333;40237;17.933333000000001;40.633333000000000;Brindisian amphora;Brindisi;EIKADIO;Italia
4.64761;44.264945;39472;4.647610000000000;44.264944999999997;Dressel 20;Ardèche (Alba);CFO;Narbonensis
17.85;40.683333;35365;17.850000000000001;40.683332999999998;Brindisian amphora;Canale Giancola;LVKAON;Italia
17.85;40.683333;35551;17.850000000000001;40.683332999999998;Brindisian amphora;Canale Giancola;SCOPAS;Italia
12.483333;38.016667;36976;12.483333000000000;38.016666999999998;Amphora incerta;Trapani;VPIIVS;Sicilia
10.333333;36.866667;6267;10.333333000000000;36.866667000000000;Later;Cartago;GLORIOSVS;Africa Proconsularis
2.1741;41.398371;17345;2.174100000000000;41.398370999999997;Dressel 2-4 Catalan;Barcelona;PRI;Tarraconensis
3.008816;43.184417;9051;3.008816000000000;43.184417000000003;Amphora incerta;Narbonne;OC;Narbonensis
-5.666942;37.615058;5563;-5.666942000000000;37.615057999999998;Dressel 20;Alcolea del Río;IICCLLM;Baetica
4.846711;45.748457;24637;4.846711000000000;45.748457000000002;Amphora incerta;Lyon?;SOLIT;Lugdunensis
13.5;43.633333;36198;13.500000000000000;43.633333000000000;Lamboglia 2;Ancona;GEN;Italia
2.040791;41.342647;36341;2.040791000000000;41.342646999999999;Pascual 1;Sant Boi de Llobregat;DAP;Tarraconensis
2.667809;41.618024;6313;2.667809000000000;41.618023999999998;Pascual 1;Calella;I;Tarraconensis
2.169444;41.629167;19155;2.169444000000000;41.629167000000002;Pascual 1;Caldes de Montbui;LMOSA;Tarraconensis
12.393333;45.544444;10547;12.393333000000000;45.544443999999999;Dressel 6A;Altino;SAFINIAEPICE;Italia
17.933333;40.633333;38217;17.933333000000001;40.633333000000000;Brindisian amphora;Brindisi;VEHILI;Italia
6.5;46.25;38972;6.500000000000000;46.250000000000000;Dressel 20;Thonon-les-Bains;MIM;Narbonensis
4.860743;45.531592;25148;4.860743000000000;45.531592000000003;Dressel 20;Saint-Romain-en-Gal;MIM;Narbonensis
17.85;40.683333;35195;17.850000000000001;40.683332999999998;Brindisian amphora;Canale Giancola;HERMAISCI;Italia
12.283333;41.75;39959;12.283333000000001;41.750000000000000;Amphora incerta;Ostia Antica;MATVRI;Italia
11.883333;45.416667;9625;11.883333000000000;45.416666999999997;Dressel 6A;Padova;SAFPIC;Italia
12.283333;41.75;28231;12.283333000000001;41.750000000000000;Dressel 20;Ostia Antica;PNN;Italia
4.636331;43.681659;39482;4.636331000000000;43.681659000000003;Dressel 20;Arles;CIAPR;Narbonensis
8.684167;50.11552;14752;8.684167000000000;50.115519999999997;Dressel 20;Frankfurt am Main;APC;Germania Superior
10.716667;35.3;26354;10.716666999999999;35.299999999999997;Africana 2A Grande;Thysdrus (El Jem);MSF;Africa Proconsularis
4.846711;45.748457;20139;4.846711000000000;45.748457000000002;Dressel 20;Lyon?;SAENIANES;Lugdunensis
7.516605;47.206649;20641;7.516605000000000;47.206648999999999;Dressel 20;Solothurn;AGRICOLAE;Germania Superior
8.44;39.881944;25319;8.440000000000000;39.881943999999997;Dolium;Sardegna;SVBSVB;Corsica et Sardinia
14.966667;46.65;31655;14.966666999999999;46.649999999999999;Dressel 6B;Magdalensberg;CLAEK;Noricum
8.618248;48.168228;14223;8.618247999999999;48.168227999999999;Dressel 20;Kastell Marienfels;PCLODICELI;Germania Superior
-5.281208;37.700239;11480;-5.281208000000000;37.700239000000003;Dressel 20;Palma del Río;CIALB;Baetica
2.244789;41.447145;17927;2.244789000000000;41.447144999999999;Tarraconense 1;Badalona;QMEVI;Tarraconensis
2.3;49.9;30595;2.300000000000000;49.899999999999999;Dressel 20;Amiens;GTR;Belgica
5.65;43.166668;34076;5.650000000000000;43.166668000000001;Dressel 1;Baie de la Ciotat;AEDO;Narbonensis
18.695556;42.515;38653;18.695556000000000;42.515000000000001;Amphora incerta;Risan;PHILESIVS;Dalmatia
0.765658;41.498525;9524;0.765658000000000;41.498525000000001;Pascual 1;Castelldefels;MPORCI;Tarraconensis
-0.230636;38.508042;24023;-0.230636000000000;38.508042000000003;Dressel 20;Villajoyosa;FPAT;Tarraconensis
12.283333;41.75;7215;12.283333000000001;41.750000000000000;Dressel 20;Ostia Antica;FELICIS;Italia
9.363795;48.683449;14815;9.363795000000000;48.683449000000003;Dressel 20;Köngen;LQS;Germania Superior
2.007994;41.396145;36373;2.007994000000000;41.396144999999997;Dressel 2-4 Catalan;Sant Vicenç dels Horts;F;Tarraconensis
17.933333;40.633333;40696;17.933333000000001;40.633333000000000;Brindisian amphora;Brindisi;PHILONICAPPVLEI;Italia
0.9;51.883333;16492;0.900000000000000;51.883333000000000;Dressel 20;Colchester;PNN;Britannia
3.008816;43.184417;25565;3.008816000000000;43.184417000000003;Pascual 1;Narbonne;OIVLITHEOPHIL;Narbonensis
17.85;40.683333;35747;17.850000000000001;40.683332999999998;Brindisian amphora;Canale Giancola;VISELLI;Italia
4.032143;46.92678;24487;4.032143000000000;46.926780000000001;Dressel 1;Mont-Beuvray;VERO;Lugdunensis
4.032143;46.92678;24446;4.032143000000000;46.926780000000001;Dressel 1;Mont-Beuvray;MET;Lugdunensis
-3.333333;56.333333;16467;-3.333333000000000;56.333333000000003;Dressel 20;Abernethy;PNN;Caledonia
7.041042;46.880888;21470;7.041042000000000;46.880887999999999;Dressel 20;Avenches;GAPF;Germania Superior
3.272973;49.3931;28486;3.272973000000000;49.393099999999997;Dressel 1B;Pommiers;H;Belgica
-0.751789;37.802242;23671;-0.751789000000000;37.802242000000000;Lamboglia 2;San Pedro;NICIA;Tarraconensis
6.685037;51.198071;14973;6.685037000000000;51.198070999999999;Dressel 20;Neuss;LVALERITROPHIMI;Germania Inferior
-2.766667;51.61;16845;-2.766667000000000;51.609999999999999;Dressel 20;Caerwent;SATVRNINI;Britannia
2.897098;42.696172;37127;2.897098000000000;42.696171999999997;Dressel 20;Perpignan;ALEAL;Narbonensis
17.933333;40.633333;38151;17.933333000000001;40.633333000000000;Brindisian amphora;Brindisi;VEHILI;Italia
2.1741;41.398371;17346;2.174100000000000;41.398370999999997;Pascual 1;Barcelona;PRI;Tarraconensis
-5.666942;37.615058;13540;-5.666942000000000;37.615057999999998;Dressel 20;Alcolea del Río;MMCS;Baetica
-5.082599;37.542203;38803;-5.082599000000000;37.542203000000001;Dressel 20;Écija;LVIVCV;Baetica
-5.082599;37.542203;10942;-5.082599000000000;37.542203000000001;Dressel 20;Écija;MMEVIMMEN;Baetica
-5.557032;34.073697;18136;-5.557032000000000;34.073697000000003;Dressel 20;Volubilis;SAENIANES;Mauretania Tingitana
4.032143;46.92678;20900;4.032143000000000;46.926780000000001;Dressel 1;Mont-Beuvray;N;Lugdunensis
17.933333;40.633333;37736;17.933333000000001;40.633333000000000;Brindisian amphora;Brindisi;CANINI;Italia
3.133952;42.51512;13862;3.133952000000000;42.515120000000003;Pascual 1;Cap Béar;PMEVI;Narbonensis
10.9;44.5;34221;10.900000000000000;44.500000000000000;Amphora incerta;Modena;THB;Italia
17.933333;40.633333;40711;17.933333000000001;40.633333000000000;Brindisian amphora;Brindisi;POSIDONI;Italia
17.933333;40.633333;38289;17.933333000000001;40.633333000000000;Brindisian amphora;Brindisi;VEHILI;Italia
-0.093145;51.514248;16789;-0.093145000000000;51.514248000000002;Dressel 20;London;QSP;Britannia
8.608962;49.473071;18877;8.608962000000000;49.473070999999997;Dressel 20;Ladenburg (Lopodunum);LFC;Germania Superior
10.433333;45.116667;9767;10.433332999999999;45.116667000000000;Lamboglia 2;Calvatone;GENTIVS;Italia
-1.549654;47.181441;27064;-1.549654000000000;47.181441000000000;Amphora incerta;Rezé;S;Aquitania
12.488056;45.78;32625;12.488056000000000;45.780000000000001;Dressel 6B;Oderzo;FELICIO;Italia
11.55;45.55;36839;11.550000000000001;45.549999999999997;Dressel 6B;Vicenza;LAEK;Italia
10.333333;36.866667;27116;10.333333000000000;36.866667000000000;Amphora incerta;Cartago;AX;Africa Proconsularis
2.85232;42.754795;37194;2.852320000000000;42.754795000000001;Amphora incerta;Peyrestortes;TAPIM;Narbonensis
17.933333;40.633333;40824;17.933333000000001;40.633333000000000;Brindisian amphora;Brindisi;SOTERICSOTERIX;Italia
17.933333;40.633333;38451;17.933333000000001;40.633333000000000;Brindisian amphora;Brindisi;APELAES;Italia
-1.083333;53.966667;15424;-1.083333000000000;53.966667000000001;Dressel 20;York;LAT;Britannia
4.873453;45.524785;25744;4.873453000000000;45.524785000000001;Dressel 20;Vienne;PANNIRVFI;Narbonensis
-3.233333;55.066667;16877;-3.233333000000000;55.066667000000002;Dressel 20;Birrens;SCAVEN;Caledonia
11.55;45.55;36839;11.550000000000001;45.549999999999997;Dressel 6B;Vicenza;L;Italia
4.846711;45.748457;24801;4.846711000000000;45.748457000000002;Dressel 20;Lyon?;CFSCVF;Lugdunensis
-5.666942;37.615058;13508;-5.666942000000000;37.615057999999998;Dressel 20;Alcolea del Río;PNN;Baetica
-2.016667;54.966667;17029;-2.016667000000000;54.966667000000001;Dressel 20;Corbridge;LVL;Britannia
3.117809;42.139543;17563;3.117809000000000;42.139543000000003;Amphora incerta;Ampurias;BY;Tarraconensis
11.25;42.5;33939;11.250000000000000;42.500000000000000;Dressel 1C;Albinia;L;Italia
-5.52751;37.658961;11170;-5.527510000000000;37.658960999999998;Dressel 20;Lora del Río;QIM;Baetica
11.25;42.833333;34205;11.250000000000000;42.833333000000003;Amphora incerta;Grosseto;EXFDECENTI;Italia
3.321807;42.318238;733;3.321807000000000;42.318238000000001;Dressel 20;Cap de Creus;ROMANI;Tarraconensis
-6.115818;34.60144;8724;-6.115818000000000;34.601439999999997;Dressel 20;Banasa;PCLODICELI;Mauretania Tingitana
-5.666942;37.615058;13482;-5.666942000000000;37.615057999999998;Dressel 20;Alcolea del Río;IICCLLM;Baetica
8.186805;50.181629;14420;8.186805000000000;50.181629000000001;Dressel 20;Orlen;QIA;Germania Superior
17.85;40.683333;35256;17.850000000000001;40.683332999999998;Brindisian amphora;Canale Giancola;LVCAO;Italia
17.933333;40.633333;40912;17.933333000000001;40.633333000000000;Brindisian amphora;Brindisi;TARVLAESVLLAEL;Italia
8.618248;48.168228;14776;8.618247999999999;48.168227999999999;Dressel 20;Kastell Marienfels;QPPHRYXI;Germania Superior
2.007994;41.396145;36351;2.007994000000000;41.396144999999997;Dressel 2-4 Catalan;Sant Vicenç dels Horts;F;Tarraconensis
-0.986232;37.605121;21581;-0.986232000000000;37.605120999999997;Greco-Itálica;Cartagena;TRLOISIO;Tarraconensis
17.85;40.683333;37442;17.850000000000001;40.683332999999998;Brindisian amphora;Canale Giancola;VISELLI;Italia
7.041042;46.880888;20207;7.041042000000000;46.880887999999999;Dressel 20;Avenches;CFVA;Germania Superior
0.626641;44.199912;21444;0.626641000000000;44.199911999999998;Dressel 20;Agen;TATILIASIATICI;Aquitania
-4.772748;37.89155;27219;-4.772748000000000;37.891550000000002;Keay 16;Córdoba;QET;Baetica
-0.064991;39.947502;8729;-0.064991000000000;39.947502000000000;Mortarium;Almazora;TIAEVOLISCVSF;Tarraconensis
-5.52751;37.658961;7138;-5.527510000000000;37.658960999999998;Dressel 20;Lora del Río;CRROP;Baetica
17.933333;40.633333;40624;17.933333000000001;40.633333000000000;Brindisian amphora;Brindisi;PERDICAS;Italia
8.488592;49.753052;27441;8.488592000000001;49.753051999999997;Dressel 20;Gernsheim;PANNIRVFI;Germania Superior
3.008816;43.184417;6095;3.008816000000000;43.184417000000003;Dressel 20;Narbonne;FIGMED;Narbonensis
3.008816;43.184417;10807;3.008816000000000;43.184417000000003;Pascual 1;Narbonne;MANTO;Narbonensis
4.828233;46.314074;20279;4.828233000000000;46.314073999999998;Dressel 20;Mâcon;LAVRELIGERMANI;Lugdunensis
11.883333;45.416667;32771;11.883333000000000;45.416666999999997;Dressel 6B;Padova;LAEK;Italia
4.942851;43.383543;9998;4.942851000000000;43.383543000000003;Dressel 1B;Golfe de Fos;SALANI;Narbonensis
-5.02037;37.810702;11721;-5.020370000000000;37.810701999999999;Dressel 20;Almodóvar del Río;CMARISILVANI;Baetica
-5.666942;37.615058;28096;-5.666942000000000;37.615057999999998;Dressel 20;Alcolea del Río;LQS;Baetica
-0.706103;38.264987;24097;-0.706103000000000;38.264986999999998;Amphora incerta;Elche;OSR;Tarraconensis
13.368333;45.770278;25079;13.368333000000000;45.770277999999998;Lamboglia 2;Aquileia;PERO;Italia
7.910556;36.889444;26333;7.910556000000000;36.889443999999997;Africana;Annaba (Hippo Regius);COLLEPFELIC;Africa Proconsularis
3.008816;43.184417;6075;3.008816000000000;43.184417000000003;Dressel 20;Narbonne;CIALB;Narbonensis
-5.281208;37.700239;11340;-5.281208000000000;37.700239000000003;Dressel 20;Palma del Río;BEL;Baetica
-5.082599;37.542203;10891;-5.082599000000000;37.542203000000001;Dressel 20;Écija;LFC;Baetica
7.702305;48.581105;8189;7.702305000000000;48.581105000000001;Dressel 20;Koenigshoffen;VITALISF;Germania Superior
-6.580203;34.261008;36104;-6.580203000000000;34.261007999999997;Dressel 20;Sidi Ali Ben Ahmed;MIM;Mauretania Tingitana
6.95;50.933333;14984;6.950000000000000;50.933332999999998;Dressel 20;Köln;VIRGIN;Germania Inferior
6.866667;43.433333;9349;6.866667000000000;43.433332999999998;Dressel 2-4 Catalan;Rade d'Agay;PRI;Narbonensis
3.008816;43.184417;10809;3.008816000000000;43.184417000000003;Pascual 1;Narbonne;EVTICE;Narbonensis
2.040791;41.342647;36637;2.040791000000000;41.342646999999999;Pascual 1;Sant Boi de Llobregat;QVA;Tarraconensis
-0.986232;37.605121;21632;-0.986232000000000;37.605120999999997;Brindisian amphora;Cartagena;PER;Tarraconensis
11.133333;45.016667;34355;11.133333000000000;45.016666999999998;Operculum;Malcantone;CAESARE;Italia
17.933333;40.633333;38195;17.933333000000001;40.633333000000000;Brindisian amphora;Brindisi;VEHILI;Italia
-1.083333;53.966667;15907;-1.083333000000000;53.966667000000001;Dressel 20;York;MFS;Britannia
9.2;45.466667;9807;9.199999999999999;45.466667000000001;Lamboglia 2;Milano;PROTE;Italia
2.007994;41.396145;36394;2.007994000000000;41.396144999999997;Dressel 2-4;Sant Vicenç dels Horts;FA;Tarraconensis
8.186805;50.181629;14364;8.186805000000000;50.181629000000001;Dressel 20;Orlen;FLQR;Germania Superior
-0.119349;38.919708;13823;-0.119349000000000;38.919708000000000;Dressel 2-4 Catalan;Oliva;OCIRCULUS;Tarraconensis
17.85;40.683333;35391;17.850000000000001;40.683332999999998;Brindisian amphora;Canale Giancola;LVKAON;Italia
3.008816;43.184417;25639;3.008816000000000;43.184417000000003;Pascual 1;Narbonne;L;Narbonensis
3.194503;41.894075;8461;3.194503000000000;41.894075000000001;Tegula;Llafranc;PRI;Tarraconensis
3.127051;43.289615;6027;3.127051000000000;43.289614999999998;Dressel 1A;Nissan-Lez-Ensérune;LANILF;Narbonensis
7.717205;47.536818;7494;7.717205000000000;47.536817999999997;Dressel 20;Augst;LFC;Germania Superior
10.315858;47.732209;31754;10.315858000000000;47.732208999999997;Dressel 20;Kempten;LVRP;Raetia
17.933333;40.633333;41010;17.933333000000001;40.633333000000000;Brindisian amphora;Brindisi;ANINIANA;Italia
11.883333;45.416667;32812;11.883333000000000;45.416666999999997;Dressel 6B;Padova;COSTINI;Italia
4.873453;45.524785;39365;4.873453000000000;45.524785000000001;Dressel 20;Vienne;DATSCOL;Narbonensis
8.566917;50.271515;14164;8.566917000000000;50.271515000000001;Dressel 20;Niederbieber;SCLT;Germania Superior
17.85;40.683333;34775;17.850000000000001;40.683332999999998;Brindisian amphora;Canale Giancola;APOLLONIDES;Italia
2.292737;43.112;10641;2.292737000000000;43.112000000000002;Dressel 1;Pomas;P;Narbonensis
3.359518;49.379764;28490;3.359518000000000;49.379764000000002;Dressel 1B;Villeneuve-Saint-Germain;AC;Belgica
2.244789;41.447145;17806;2.244789000000000;41.447144999999999;Pascual 1;Badalona;MPORCI;Tarraconensis
13.716667;43.15;34107;13.716666999999999;43.149999999999999;Lamboglia 2;Fermo;LSALVI;Italia
12.896389;46.057778;25409;12.896388999999999;46.057777999999999;Dressel 1A;Cosa;ANCORA;Italia
-6.580203;34.261008;36114;-6.580203000000000;34.261007999999997;Africana 2;Sidi Ali Ben Ahmed;TOPHLV;Mauretania Tingitana
3.117809;42.139543;17597;3.117809000000000;42.139543000000003;Pascual 1;Ampurias;CNLENTVLAVGVRIS;Tarraconensis
11.883333;45.416667;33030;11.883333000000000;45.416666999999997;Dressel 6B;Padova;CAEKBAS;Italia
12.283333;41.75;20288;12.283333000000001;41.750000000000000;Amphora incerta;Ostia Antica;CAVIF;Italia
6.389464;45.956037;25173;6.389464000000000;45.956037000000002;Amphora incerta;Entremont;IO;Narbonensis
4.846711;45.748457;25720;4.846711000000000;45.748457000000002;Dressel 20;Lyon?;LAEL;Lugdunensis
-5.666942;37.615058;13201;-5.666942000000000;37.615057999999998;Dressel 20;Alcolea del Río;PNN;Baetica
8.249322;50.082582;14738;8.249321999999999;50.082582000000002;Dressel 20;Wiesbaden;POROCODV;Germania Superior
2.040791;41.342647;36347;2.040791000000000;41.342646999999999;Pascual 1;Sant Boi de Llobregat;TH;Tarraconensis
12.283333;41.75;1782;12.283333000000001;41.750000000000000;Dressel 20;Ostia Antica;CAMILIMELISSI;Italia
11.983333;44.25;34164;11.983333000000000;44.250000000000000;Amphora incerta;Villanova;ALEXA;Italia
8.684167;50.11552;14802;8.684167000000000;50.115519999999997;Dressel 20;Frankfurt am Main;LQS;Germania Superior
8.279096;49.984188;18940;8.279095999999999;49.984188000000003;Dressel 20;Mainz;CLK;Germania Superior
8.684167;50.11552;14569;8.684167000000000;50.115519999999997;Dressel 20;Frankfurt am Main;LIVNIMELISSI;Germania Superior
17.85;40.683333;35562;17.850000000000001;40.683332999999998;Brindisian amphora;Canale Giancola;SCOPA;Italia
11.883333;45.416667;9605;11.883333000000000;45.416666999999997;Dressel 6A;Padova;LNF;Italia
2.244789;41.447145;18013;2.244789000000000;41.447144999999999;Dressel 2-4 Catalan;Badalona;L;Tarraconensis
3.127051;43.289615;6166;3.127051000000000;43.289614999999998;Dressel 1B;Nissan-Lez-Ensérune;METVIMTEVI;Narbonensis
17.933333;40.633333;40440;17.933333000000001;40.633333000000000;Brindisian amphora;Brindisi;MENAI;Italia
4.942851;43.383543;10273;4.942851000000000;43.383543000000003;Dressel 20;Golfe de Fos;QVINT;Narbonensis
-5.233333;37.833333;858;-5.233333000000000;37.833333000000003;Dressel 20;Hornachuelos;LFC;Baetica
-0.666667;39.5;24062;-0.666667000000000;39.500000000000000;Beltrán 2B;Valencia;LME;Tarraconensis
4.873453;45.524785;24855;4.873453000000000;45.524785000000001;Dressel 20;Vienne;LSAR;Narbonensis
-5.52751;37.658961;6650;-5.527510000000000;37.658960999999998;Dressel 20;Lora del Río;QAELIOPTATI;Baetica
6.685037;51.198071;14903;6.685037000000000;51.198070999999999;Dressel 20;Neuss;SAENIANES;Germania Inferior
2.007994;41.396145;36535;2.007994000000000;41.396144999999997;Pascual 1;Sant Vicenç dels Horts;PRIMVL;Tarraconensis
-6.115818;34.60144;8883;-6.115818000000000;34.601439999999997;Dressel 20;Banasa;ROMANI;Mauretania Tingitana
17.85;40.683333;35889;17.850000000000001;40.683332999999998;Brindisian amphora;Canale Giancola;PAMPVDICOM;Italia
3.117809;42.139543;17674;3.117809000000000;42.139543000000003;Dressel 20;Ampurias;GLPV;Tarraconensis
6.95;50.933333;14983;6.950000000000000;50.933332999999998;Dressel 20;Köln;VIRGIN;Germania Inferior
-6.191022;36.528604;27291;-6.191022000000000;36.528604000000001;Dressel 7-11;Puerto Real;AQA;Baetica
4.846711;45.748457;28165;4.846711000000000;45.748457000000002;Dressel 20;Lyon?;PONTICI;Lugdunensis
30.841804;29.309949;37992;30.841804000000000;29.309949000000000;Brindisian amphora;Fayum;MRVDI;Aegyptus
4.032143;46.92678;24378;4.032143000000000;46.926780000000001;Dressel 1;Mont-Beuvray;BET;Lugdunensis
3.008816;43.184417;6099;3.008816000000000;43.184417000000003;Dressel 20;Narbonne;PANNIRVFI;Narbonensis
3.904604;43.567522;7300;3.904604000000000;43.567521999999997;Dressel 20;Lattes;SCALPAH;Narbonensis
8.279096;49.984188;19055;8.279095999999999;49.984188000000003;Dressel 20;Mainz;POROCODV;Germania Superior
-0.093145;51.514248;16787;-0.093145000000000;51.514248000000002;Dressel 20;London;QSP;Britannia
17.933333;40.633333;37913;17.933333000000001;40.633333000000000;Brindisian amphora;Brindisi;LLVCI;Italia
11.883333;45.416667;36737;11.883333000000000;45.416666999999997;Dressel 6B;Padova;PIERI;Italia
4.846711;45.748457;29597;4.846711000000000;45.748457000000002;Dressel 20;Lyon?;CTYC;Lugdunensis
2.971462;42.600308;37085;2.971462000000000;42.600307999999998;Brindisian amphora;Elne;LFO;Narbonensis
8.48255;49.921394;1046;8.482550000000000;49.921393999999999;Dressel 20;Groß-Gerau;AGRICOLAE;Germania Superior
4.873453;45.524785;29558;4.873453000000000;45.524785000000001;Dressel 20;Vienne;CSEMPRONIPOLYCLITI;Narbonensis
-0.986232;37.605121;21570;-0.986232000000000;37.605120999999997;Greco-Itálica;Cartagena;D;Tarraconensis
-0.666667;39.5;24063;-0.666667000000000;39.500000000000000;Beltrán 2B;Valencia;CCIRCULUS;Tarraconensis
-2.533333;53.8;15481;-2.533333000000000;53.799999999999997;Dressel 20;Ribchester;GAVFL;Britannia
17.933333;40.633333;38428;17.933333000000001;40.633333000000000;Brindisian amphora;Brindisi;APELAES;Italia
17.933333;40.633333;40702;17.933333000000001;40.633333000000000;Brindisian amphora;Brindisi;PHILONICAPPVLEI;Italia
3.0;39.316667;7344;3.000000000000000;39.316667000000002;Lamboglia 2;Colònia de Sant Jordi;SIRAS;Tarraconensis
12.283333;41.75;28523;12.283333000000001;41.750000000000000;Dressel 20;Ostia Antica;OPTATI;Italia
8.279096;49.984188;14953;8.279095999999999;49.984188000000003;Dressel 20;Mainz;LVA;Germania Superior
-1.083333;53.966667;16686;-1.083333000000000;53.966667000000001;Dressel 20;York;BARBA;Britannia
3.087818;43.105257;25210;3.087818000000000;43.105257000000002;Amphora incerta;Gruissan;CCL;Narbonensis
4.873453;45.524785;24793;4.873453000000000;45.524785000000001;Dressel 20;Vienne;QFC;Narbonensis
3.303665;50.472689;29448;3.303665000000000;50.472689000000003;Dressel 20;Landas;CSL;Belgica
4.828233;46.314074;21086;4.828233000000000;46.314073999999998;Dressel 1;Mâcon;CCVSPI;Lugdunensis
0.059105;42.333409;9531;0.059105000000000;42.333409000000003;Pascual 1;Castelldefels;SN;Tarraconensis
17.933333;40.633333;40699;17.933333000000001;40.633333000000000;Brindisian amphora;Brindisi;PHILONICAPPVLEI;Italia
7.041042;46.880888;21466;7.041042000000000;46.880887999999999;Mortarium;Avenches;MELISSI;Germania Superior
8.485057;48.268117;11999;8.485056999999999;48.268116999999997;Dressel 20;Waldmössingen;PMZ;Germania Superior
17.85;40.683333;35431;17.850000000000001;40.683332999999998;Brindisian amphora;Canale Giancola;SCOPAS;Italia
-2.333333;54.966667;18735;-2.333333000000000;54.966667000000001;Dressel 20;Bardon Mill;SERM;Britannia
-5.281208;37.700239;11416;-5.281208000000000;37.700239000000003;Dressel 20;Palma del Río;LVIBICHOMIS;Baetica
3.008816;43.184417;25584;3.008816000000000;43.184417000000003;Pascual 1;Narbonne;LVOLTEIL;Narbonensis
17.933333;40.633333;40763;17.933333000000001;40.633333000000000;Brindisian amphora;Brindisi;PTOLEMAE;Italia
17.933333;40.633333;40352;17.933333000000001;40.633333000000000;Brindisian amphora;Brindisi;KEPHALONOSKEFALONOS;Italia
4.860743;45.531592;39656;4.860743000000000;45.531592000000003;Dressel 20;Saint-Romain-en-Gal;CSEMPRONIPOLYCLITI;Narbonensis
5.65;43.166668;34001;5.650000000000000;43.166668000000001;Dressel 1;Baie de la Ciotat;PARNA;Narbonensis
17.85;40.683333;34649;17.850000000000001;40.683332999999998;Brindisian amphora;Canale Giancola;APOLLONID;Italia
3.73858;43.606282;15084;3.738580000000000;43.606282000000000;Dressel 20;Murviel-lès-Montpellier;LVIBICHROMIS;Narbonensis
8.05;43.883333;19480;8.050000000000001;43.883333000000000;Dressel 2-4 Catalan;Imperia;RIM;Italia
11.65;45.233333;4654;11.650000000000000;45.233333000000002;Dressel 6A;Este;THB;Italia
12.283333;41.75;26480;12.283333000000001;41.750000000000000;Dressel 20;Ostia Antica;FICEP;Italia
17.85;40.683333;37561;17.850000000000001;40.683332999999998;Brindisian amphora;Canale Giancola;VISELLI;Italia
17.933333;40.633333;37979;17.933333000000001;40.633333000000000;Brindisian amphora;Brindisi;LPVBLILI;Italia
7.127766;43.562407;32112;7.127766000000000;43.562407000000000;Dressel 1B;Antibes;MA;Narbonensis
5.265397;44.690917;8345;5.265397000000000;44.690916999999999;Amphora incerta;Roanne;TTR;Narbonensis
17.85;40.683333;35439;17.850000000000001;40.683332999999998;Brindisian amphora;Canale Giancola;SCOPAS;Italia
4.846711;45.748457;29562;4.846711000000000;45.748457000000002;Dressel 20;Lyon?;CSEMPRONIPOLYCLITI;Lugdunensis
5.65;43.166668;34021;5.650000000000000;43.166668000000001;Dressel 1;Baie de la Ciotat;DIESC;Narbonensis
5.65;43.166668;34054;5.650000000000000;43.166668000000001;Dressel 1;Baie de la Ciotat;PILOPILOTA;Narbonensis
17.85;40.683333;34583;17.850000000000001;40.683332999999998;Brindisian amphora;Canale Giancola;APELLAE;Italia
-0.25;51.833333;16600;-0.250000000000000;51.833333000000003;Dressel 20;St. Albans;APM;Britannia
7.041042;46.880888;20235;7.041042000000000;46.880887999999999;Dressel 20;Avenches;LVQ;Germania Superior
-5.52751;37.658961;33337;-5.527510000000000;37.658960999999998;Dressel 20;Lora del Río;GAP;Baetica
25.267778;37.3925;27066;25.267778000000000;37.392499999999998;Lamboglia 2;Delo;DORAES;Achaia
4.873453;45.524785;29430;4.873453000000000;45.524785000000001;Dressel 20;Vienne;ROMANI;Narbonensis
8.684167;50.11552;14290;8.684167000000000;50.115519999999997;Dressel 20;Frankfurt am Main;LFC;Germania Superior
2.444503;41.542113;19247;2.444503000000000;41.542113000000001;Dressel 2-4 Catalan;Mataró;PBBP;Tarraconensis
17.85;40.683333;34750;17.850000000000001;40.683332999999998;Brindisian amphora;Canale Giancola;APOLONIDA;Italia
17.933333;40.633333;41083;17.933333000000001;40.633333000000000;Brindisian amphora;Brindisi;ANINIANA;Italia
-5.666942;37.615058;13191;-5.666942000000000;37.615057999999998;Dressel 20;Alcolea del Río;N;Baetica
12.283333;41.75;28224;12.283333000000001;41.750000000000000;Dressel 20;Ostia Antica;PNN;Italia
12.283333;41.75;28233;12.283333000000001;41.750000000000000;Dressel 20;Ostia Antica;PNN;Italia
4.14196;39.934563;12580;4.141960000000000;39.934562999999997;Pascual 1;Alayor;PRI;Tarraconensis
8.279096;49.984188;14000;8.279095999999999;49.984188000000003;Dressel 20;Mainz;MAEMRV;Germania Superior
-2.016667;54.966667;16085;-2.016667000000000;54.966667000000001;Dressel 20;Corbridge;QIA;Britannia
12.583333;38.033333;33122;12.583333000000000;38.033332999999999;Greco-Itálica;Erice;LVESCEI;Sicilia
2.244789;41.447145;18026;2.244789000000000;41.447144999999999;Dressel 2-4 Catalan;Badalona;QVA;Tarraconensis
7.183555;49.115171;8081;7.183555000000000;49.115170999999997;Dressel 20;Bliesbrück;LQS;Belgica
2.3;49.9;30561;2.300000000000000;49.899999999999999;Dressel 20;Amiens;SNR;Belgica
-0.986232;37.605121;23720;-0.986232000000000;37.605120999999997;Lamboglia 2;Cartagena;Q;Tarraconensis
4.873453;45.524785;24895;4.873453000000000;45.524785000000001;Dressel 20;Vienne;LVIBICHROMIS;Narbonensis
2.040791;41.342647;36434;2.040791000000000;41.342646999999999;Pascual 1;Sant Boi de Llobregat;IVLIANICETI;Tarraconensis
4.873453;45.524785;24887;4.873453000000000;45.524785000000001;Dressel 20;Vienne;LVALERIVITALIS;Narbonensis
17.85;40.683333;37277;17.850000000000001;40.683332999999998;Brindisian amphora;Canale Giancola;DEMETRI;Italia
2.244789;41.447145;18039;2.244789000000000;41.447144999999999;Dressel 2-4 Catalan;Badalona;ENT;Tarraconensis
0.9;51.883333;16975;0.900000000000000;51.883333000000000;Dressel 20;Colchester;CSEMPRONIPOLYCLITI;Britannia
6.377302;43.001178;27287;6.377302000000000;43.001178000000003;Beltrán 2A;îles d'Hyères;CPO;Narbonensis
18.011313;47.712314;6410;18.011313000000001;47.712313999999999;Dressel 20;Acs-Vaspuszta;LCMY;Pannonia Inferior
6.866667;43.433333;9367;6.866667000000000;43.433332999999998;Dressel 2-4 Catalan;Rade d'Agay;ITTI;Narbonensis
8.279096;49.984188;18954;8.279095999999999;49.984188000000003;Dressel 20;Mainz;CAERARIA;Germania Superior
5.859722;49.540278;19880;5.859722000000000;49.540278000000001;Dressel 20;Titelberg;LQS;Belgica
17.933333;40.633333;37789;17.933333000000001;40.633333000000000;Brindisian amphora;Brindisi;APPVLEI;Italia
12.283333;41.75;28169;12.283333000000001;41.750000000000000;Dressel 20;Ostia Antica;POPVLI;Italia
-5.233333;37.833333;853;-5.233333000000000;37.833333000000003;Dressel 20;Hornachuelos;LFC;Baetica
2.225338;41.653783;5759;2.225338000000000;41.653782999999997;Dressel 2-4 Catalan;Santa Eulàlia de Ronçana;COR;Tarraconensis
-5.52751;37.658961;7014;-5.527510000000000;37.658960999999998;Dressel 20;Lora del Río;POPVLI;Baetica
12.283333;41.75;26467;12.283333000000001;41.750000000000000;Dressel 20;Ostia Antica;CAS;Italia
-2.333333;54.966667;18739;-2.333333000000000;54.966667000000001;Dressel 20;Bardon Mill;EL;Britannia
-0.093145;51.514248;15904;-0.093145000000000;51.514248000000002;Dressel 20;London;OLMEN;Britannia
12.896389;46.057778;26358;12.896388999999999;46.057777999999999;Africana 1A pic.;Cosa;PAS;Italia
-5.09965;37.704938;12209;-5.099650000000000;37.704937999999999;Dressel 20;Fuente Palmera;AEFCA;Baetica
-0.751789;37.802242;23702;-0.751789000000000;37.802242000000000;Lamboglia 2;San Pedro;VICTORIA;Tarraconensis
2.971462;42.600308;37112;2.971462000000000;42.600307999999998;Pascual 1;Elne;LIINILICINI;Narbonensis
-0.706103;38.264987;23551;-0.706103000000000;38.264986999999998;Africana 2A Grande;Elche;PLS;Tarraconensis
4.424095;44.847922;39772;4.424095000000000;44.847921999999997;Dressel 20;Saint-Genest;QIM;Narbonensis
-6.494247;34.334284;37621;-6.494247000000000;34.334283999999997;Dressel 20;Sidi Ali ben ahmed (Thamusida);PNN;Mauretania Tingitana
17.85;40.683333;35193;17.850000000000001;40.683332999999998;Brindisian amphora;Canale Giancola;HERMAISCI;Italia
17.85;40.683333;35236;17.850000000000001;40.683332999999998;Brindisian amphora;Canale Giancola;LIBO;Italia
17.933333;40.633333;38073;17.933333000000001;40.633333000000000;Brindisian amphora;Brindisi;VEHIL;Italia
4.846711;45.748457;7156;4.846711000000000;45.748457000000002;Dressel 1;Lyon?;AL;Lugdunensis
0.333333;46.583333;9062;0.333333000000000;46.583333000000003;Amphora incerta;Poitiers;CAVIVICOI;Aquitania
8.684167;50.11552;14786;8.684167000000000;50.115519999999997;Dressel 20;Frankfurt am Main;POPVLI;Germania Superior
17.85;40.683333;35008;17.850000000000001;40.683332999999998;Brindisian amphora;Canale Giancola;DEMETRI;Italia
17.933333;40.633333;40260;17.933333000000001;40.633333000000000;Brindisian amphora;Brindisi;HPAIOC;Italia
2.169444;41.629167;19146;2.169444000000000;41.629167000000002;Pascual 1;Caldes de Montbui;PTE;Tarraconensis
-5.233333;37.833333;26671;-5.233333000000000;37.833333000000003;Dressel 20;Hornachuelos;LFC;Baetica
11.366667;45.0;33737;11.366667000000000;45.000000000000000;Amphora incerta;Sermide;PAPIANI;Italia
2.444503;41.542113;5480;2.444503000000000;41.542113000000001;Amphora incerta;Mataró;LVOLTEIL;Tarraconensis
-2.916667;53.2;16768;-2.916667000000000;53.200000000000003;Dressel 20;Chester;MSM;Britannia
17.85;40.683333;35619;17.850000000000001;40.683332999999998;Brindisian amphora;Canale Giancola;VISELLI;Italia
4.860743;45.531592;28319;4.860743000000000;45.531592000000003;Dressel 20;Saint-Romain-en-Gal;CMARISILVANI;Narbonensis
8.279096;49.984188;19597;8.279095999999999;49.984188000000003;Pascual 1;Mainz;CHR;Germania Superior
-5.52751;37.658961;11226;-5.527510000000000;37.658960999999998;Dressel 20;Lora del Río;CRISPI;Baetica
4.64761;44.264945;39506;4.647610000000000;44.264944999999997;Dressel 20;Ardèche (Alba);QIM;Narbonensis
17.933333;40.633333;40589;17.933333000000001;40.633333000000000;Brindisian amphora;Brindisi;NOYMHNIO;Italia
3.321807;42.318238;25025;3.321807000000000;42.318238000000001;Pascual 1;Cap de Creus;D;Tarraconensis
-5.489539;36.184704;27277;-5.489539000000000;36.184704000000004;Dressel 14A;Los Barrios;CNP;Baetica
-6.494247;34.334284;8992;-6.494247000000000;34.334283999999997;Dressel 30 - Keay 1B;Sidi Ali ben ahmed (Thamusida);EXPROVMAVRCAESTVBVS;Mauretania Tingitana
-5.281208;37.700239;13748;-5.281208000000000;37.700239000000003;Dressel 20;Palma del Río;CI;Baetica
2.040791;41.342647;19461;2.040791000000000;41.342646999999999;Pascual 1;Sant Boi de Llobregat;IVLIANICETI;Tarraconensis
8.279096;49.984188;19622;8.279095999999999;49.984188000000003;Beltrán 2A;Mainz;EPHAE;Germania Superior
11.883333;45.416667;32772;11.883333000000000;45.416666999999997;Dressel 6B;Padova;SPERA;Italia
-6.79846;34.0531;8683;-6.798460000000000;34.053100000000001;Dressel 20;Salé (Sala);QCR;Mauretania Tingitana
4.032143;46.92678;20988;4.032143000000000;46.926780000000001;Dressel 1;Mont-Beuvray;IBER;Lugdunensis
12.488056;45.78;32587;12.488056000000000;45.780000000000001;Dressel 6A;Oderzo;COSSII;Italia
4.846711;45.748457;21503;4.846711000000000;45.748457000000002;Dressel 1;Lyon?;SEST;Lugdunensis
2.1741;41.398371;17361;2.174100000000000;41.398370999999997;Dressel 2-4 Catalan;Barcelona;PLOC;Tarraconensis
3.310708;43.504888;39410;3.310708000000000;43.504888000000001;Dressel 20;Roujan;CCHREST;Narbonensis
-2.65;52.666667;17020;-2.650000000000000;52.666666999999997;Dressel 20;Wroxeter;LVC;Britannia
